index,city,city_ascii,lat,lng,country,iso2,iso3,admin_name,capital,population,id
537,Maseru,Maseru,-29.3167,27.4833,Lesotho,LS,LSO,Maseru,primary,361324.0,1426977668
3798,Mafeteng,Mafeteng,-29.8166,27.25,Lesotho,LS,LSO,Mafeteng,admin,57059.0,1426506047
3959,Leribe,Leribe,-28.878,28.056,Lesotho,LS,LSO,Leribe,admin,47675.0,1426721246
4471,Mohale’s Hoek,Mohale's Hoek,-30.159,27.48,Lesotho,LS,LSO,Mohale’s Hoek,admin,24992.0,1426343192
4508,Quthing,Quthing,-30.411,27.716,Lesotho,LS,LSO,Quthing,admin,24130.0,1426618526
4753,Butha-Buthe,Butha-Buthe,-28.75,28.25,Lesotho,LS,LSO,Butha-Buthe,admin,16330.0,1426574356
5066,Mokhotlong,Mokhotlong,-29.291,29.078,Lesotho,LS,LSO,Mokhotlong,admin,8809.0,1426785819
5276,Teyateyaneng,Teyateyaneng,-29.153,27.753,Lesotho,LS,LSO,Berea,admin,5115.0,1426159118
6580,Qacha’s Nek,Qacha's Nek,-30.1154,28.6894,Lesotho,LS,LSO,Qacha’s Nek,admin,,1426361264
6704,Thaba-Tseka,Thaba-Tseka,-29.522,28.6084,Lesotho,LS,LSO,Thaba-Tseka,admin,,1426611266
536,Valletta,Valletta,35.8997,14.5147,Malta,MT,MLT,Valletta,primary,368250.0,1470574399
5377,Sliema,Sliema,35.9125,14.5019,Malta,MT,MLT,Sliema,admin,,1470229986
5392,Fgura,Fgura,35.8703,14.5133,Malta,MT,MLT,Fgura,admin,,1470252842
5393,Birkirkara,Birkirkara,35.8972,14.4611,Malta,MT,MLT,Birkirkara,admin,,1470754290
5395,Ħamrun,Hamrun,35.8847,14.4844,Malta,MT,MLT,Ħamrun,admin,,1470141385
5403,Senglea,Senglea,35.8875,14.5169,Malta,MT,MLT,Isla,admin,,1470598185
5411,Tarxien,Tarxien,35.8658,14.515,Malta,MT,MLT,Tarxien,admin,,1470230507
5418,Floriana,Floriana,35.8958,14.5083,Malta,MT,MLT,Floriana,admin,,1470089344
5420,Imsida,Imsida,35.8925,14.4828,Malta,MT,MLT,Imsida,admin,,1470395922
5424,Santa Venera,Santa Venera,35.8908,14.4742,Malta,MT,MLT,Santa Venera,admin,,1470983296
5427,Pietà,Pieta,35.8947,14.495,Malta,MT,MLT,Pietà,admin,,1470444069
5428,Ta’ Xbiex,Ta' Xbiex,35.8992,14.4944,Malta,MT,MLT,Ta’ Xbiex,admin,,1470129537
5439,Gżira,Gzira,35.9058,14.4881,Malta,MT,MLT,Gżira,admin,,1470739045
5465,San Ġwann,San Gwann,35.9056,14.4761,Malta,MT,MLT,San Ġwann,admin,,1470073144
5479,San Ġiljan,San Giljan,35.9197,14.4844,Malta,MT,MLT,San Ġiljan,admin,,1470707733
5496,Vittoriosa,Vittoriosa,35.8922,14.5183,Malta,MT,MLT,Birgu,admin,,1470805169
5500,Balzan,Balzan,35.9003,14.455,Malta,MT,MLT,Balzan,admin,,1470875655
5519,Qormi,Qormi,35.8783,14.4719,Malta,MT,MLT,Qormi,admin,,1470879234
5532,Mosta,Mosta,35.9092,14.4256,Malta,MT,MLT,Mosta,admin,,1470176983
5544,Żabbar,Zabbar,35.8761,14.535,Malta,MT,MLT,Żabbar,admin,,1470317969
5549,Swieqi,Swieqi,35.9225,14.48,Malta,MT,MLT,Swieqi,admin,,1470279940
5570,Kalkara,Kalkara,35.8892,14.5328,Malta,MT,MLT,Kalkara,admin,,1470563392
5571,Cospicua,Cospicua,35.8856,14.5275,Malta,MT,MLT,Bormla,admin,,1470541461
5585,Marsaskala,Marsaskala,35.8669,14.5619,Malta,MT,MLT,Marsaskala,admin,,1470808916
5594,Lija,Lija,35.9006,14.4464,Malta,MT,MLT,Lija,admin,,1470862409
5595,Victoria,Victoria,36.0444,14.2397,Malta,MT,MLT,Rabat (Ghawdex),admin,,1470128499
5602,Żejtun,Zejtun,35.8558,14.5331,Malta,MT,MLT,Żejtun,admin,,1470320205
5622,Fontana,Fontana,36.0375,14.2361,Malta,MT,MLT,Fontana,admin,,1470427419
5624,Paola,Paola,35.8731,14.4989,Malta,MT,MLT,Paola,admin,,1470416994
5628,Xgħajra,Xghajra,35.8856,14.5475,Malta,MT,MLT,Xgħajra,admin,,1470535936
5632,Iklin,Iklin,35.9092,14.4522,Malta,MT,MLT,Iklin,admin,,1470330332
5659,Kirkop,Kirkop,35.8422,14.4853,Malta,MT,MLT,Kirkop,admin,,1470075119
5664,Pembroke,Pembroke,35.9306,14.4764,Malta,MT,MLT,Pembroke,admin,,1470802229
5675,Attard,Attard,35.8897,14.4425,Malta,MT,MLT,Attard,admin,,1470765022
5681,Marsa,Marsa,35.8792,14.4953,Malta,MT,MLT,Marsa,admin,,1470720892
5700,Għargħur,Gharghur,35.9242,14.4519,Malta,MT,MLT,Għargħur,admin,,1470917815
5703,Żebbuġ,Zebbug,35.8719,14.4411,Malta,MT,MLT,Żebbuġ,admin,,1470473600
5709,Gudja,Gudja,35.8492,14.5031,Malta,MT,MLT,Gudja,admin,,1470798142
5722,Imqabba,Imqabba,35.8461,14.4672,Malta,MT,MLT,Imqabba,admin,,1470934982
5725,Saint Paul’s Bay,Saint Paul's Bay,35.9483,14.4006,Malta,MT,MLT,San Pawl il-Baħar,admin,,1470879974
5732,Marsaxlokk,Marsaxlokk,35.8419,14.5431,Malta,MT,MLT,Marsaxlokk,admin,,1470596833
5738,Għaxaq,Ghaxaq,35.8489,14.5167,Malta,MT,MLT,Għaxaq,admin,,1470648445
5739,Birżebbuġa,Birzebbuga,35.8258,14.5269,Malta,MT,MLT,Birżebbuġa,admin,,1470830646
5740,Żurrieq,Zurrieq,35.8311,14.4742,Malta,MT,MLT,Żurrieq,admin,,1470331348
5741,Naxxar,Naxxar,35.9136,14.4436,Malta,MT,MLT,Naxxar,admin,,1470470220
5776,Safi,Safi,35.8331,14.4847,Malta,MT,MLT,Safi,admin,,1470417421
5783,Imtarfa,Imtarfa,35.8933,14.3989,Malta,MT,MLT,Imtarfa,admin,,1470946814
5786,Kerċem,Kercem,36.0419,14.2267,Malta,MT,MLT,Kerċem,admin,,1470847062
5806,Luqa,Luqa,35.8589,14.4886,Malta,MT,MLT,Luqa,admin,,1470901810
5818,Qrendi,Qrendi,35.8347,14.4583,Malta,MT,MLT,Qrendi,admin,,1470797535
5879,Xewkija,Xewkija,36.0328,14.2581,Malta,MT,MLT,Xewkija,admin,,1470040289
5888,Għasri,Ghasri,36.0578,14.2264,Malta,MT,MLT,Għasri,admin,,1470127050
5900,Dingli,Dingli,35.8614,14.3822,Malta,MT,MLT,Dingli,admin,,1470281352
5921,Xagħra,Xaghra,36.05,14.2644,Malta,MT,MLT,Xagħra,admin,,1470781874
5928,Imdina,Imdina,35.8869,14.4025,Malta,MT,MLT,Imdina,admin,,1470959100
5936,Nadur,Nadur,36.0378,14.2942,Malta,MT,MLT,Nadur,admin,,1470985739
5946,Munxar,Munxar,36.03,14.2333,Malta,MT,MLT,Munxar,admin,,1470116785
5961,Sannat,Sannat,36.0244,14.2428,Malta,MT,MLT,Sannat,admin,,1470546177
5983,Siġġiewi,Siggiewi,35.8556,14.4364,Malta,MT,MLT,Siġġiewi,admin,,1470181462
5985,Rabat,Rabat,35.8822,14.3981,Malta,MT,MLT,Rabat,admin,,1470262687
6001,Mellieħa,Mellieha,35.9564,14.3622,Malta,MT,MLT,Mellieħa,admin,,1470660015
6038,Għajnsielem,Ghajnsielem,36.0264,14.285,Malta,MT,MLT,Għajnsielem,admin,,1470050658
6056,Qala,Qala,36.0361,14.3094,Malta,MT,MLT,Qala,admin,,1470520722
6069,Santa Luċija,Santa Lucija,36.0431,14.2172,Malta,MT,MLT,Santa Luċija,admin,,1470880833
6134,Żebbuġ,Zebbug,36.0722,14.2358,Malta,MT,MLT,Żebbuġ (Ghawdex),admin,,1470804129
6147,Imġarr,Imgarr,35.9206,14.3664,Malta,MT,MLT,Imġarr,admin,,1470038163
6189,Għarb,Gharb,36.06,14.2089,Malta,MT,MLT,Għarb,admin,,1470113453
6278,San Lawrenz,San Lawrenz,36.0556,14.2036,Malta,MT,MLT,San Lawrenz,admin,,1470602161
534,Tallinn,Tallinn,59.4339,24.728,Estonia,EE,EST,Harjumaa,primary,394024.0,1233260021
3251,Tartu,Tartu,58.3839,26.7099,Estonia,EE,EST,Tartumaa,admin,101092.0,1233809410
4032,Pärnu,Parnu,58.3747,24.5136,Estonia,EE,EST,Pärnumaa,admin,44192.0,1233955054
4611,Viljandi,Viljandi,58.3639,25.59,Estonia,EE,EST,Viljandimaa,admin,20309.0,1233067368
4937,Haapsalu,Haapsalu,58.9431,23.5414,Estonia,EE,EST,Läänemaa,admin,11805.0,1233967642
5680,Rapla,Rapla,59.0072,24.7928,Estonia,EE,EST,Raplamaa,admin,,1233013333
5701,Rakvere,Rakvere,59.3464,26.3558,Estonia,EE,EST,Lääne-Virumaa,admin,,1233049348
5713,Jõgeva,Jogeva,58.7467,26.3939,Estonia,EE,EST,Jõgevamaa,admin,,1233192849
5735,Kuressaare,Kuressaare,58.2481,22.5039,Estonia,EE,EST,Saaremaa,admin,,1233341219
5760,Võru,Voru,57.8339,27.0194,Estonia,EE,EST,Võrumaa,admin,,1233754374
5765,Põlva,Polva,58.0603,27.0694,Estonia,EE,EST,Põlvamaa,admin,,1233866730
5826,Paide,Paide,58.8856,25.5572,Estonia,EE,EST,Järvamaa,admin,,1233393684
5877,Kärdla,Kardla,58.9978,22.7492,Estonia,EE,EST,Hiiumaa,admin,,1233977488
5885,Valga,Valga,57.7744,26.0453,Estonia,EE,EST,Valgamaa,admin,,1233406308
6368,Jõhvi,Johvi,59.3592,27.4211,Estonia,EE,EST,Ida-Virumaa,admin,,1233731045
7492,Narva,Narva,59.3776,28.1603,Estonia,EE,EST,Ida-Virumaa,minor,66980.0,1233751159
8048,Kohtla-Järve,Kohtla-Jarve,59.4,27.2833,Estonia,EE,EST,Ida-Virumaa,minor,46060.0,1233016348
533,Bissau,Bissau,11.865,-15.5984,Guinea-Bissau,GW,GNB,Bissau,primary,403339.0,1624168850
4351,Bafatá,Bafata,12.167,-14.666,Guinea-Bissau,GW,GNB,Bafatá,admin,29704.0,1624735310
4837,Gabú,Gabu,12.28,-14.234,Guinea-Bissau,GW,GNB,Gabú,admin,14430.0,1624988048
4976,Bolama,Bolama,11.583,-15.4828,Guinea-Bissau,GW,GNB,Bolama/Bijagós,admin,10769.0,1624958412
4993,Cacheu,Cacheu,12.269,-16.165,Guinea-Bissau,GW,GNB,Cacheu,admin,10490.0,1624294223
5016,Catió,Catio,11.2167,-15.1667,Guinea-Bissau,GW,GNB,Tombali,admin,9898.0,1624933572
5169,Farim,Farim,12.493,-15.227,Guinea-Bissau,GW,GNB,Oio,admin,6792.0,1624753622
6369,Quinhámel,Quinhamel,11.8869,-15.8556,Guinea-Bissau,GW,GNB,Biombo,admin,,1624877378
6778,Buba,Buba,11.5889,-14.9958,Guinea-Bissau,GW,GNB,Quinara,admin,,1624903078
15214,Fulacunda,Fulacunda,11.773,-15.195,Guinea-Bissau,GW,GNB,,,1311.0,1624165742
532,Bratislava,Bratislava,48.15,17.117,Slovakia,SK,SVK,Bratislavský,primary,423737.0,1703195001
1858,Košice,Kosice,48.7304,21.25,Slovakia,SK,SVK,Košický,admin,236563.0,1703452690
3327,Prešov,Presov,48.9997,21.2394,Slovakia,SK,SVK,Prešovský,admin,94718.0,1703231427
3402,Žilina,Zilina,49.2198,18.7494,Slovakia,SK,SVK,Žilinský,admin,87625.0,1703289183
3454,Banská Bystrica,Banska Bystrica,48.7333,19.15,Slovakia,SK,SVK,Banskobystrický,admin,82336.0,1703015198
3604,Trnava,Trnava,48.3666,17.6,Slovakia,SK,SVK,Trnavský,admin,69785.0,1703497997
5835,Nitra,Nitra,48.309,18.0873,Slovakia,SK,SVK,Nitriansky,admin,,1703890031
5860,Trenčín,Trencin,48.8867,18.048,Slovakia,SK,SVK,Trenčiansky,admin,,1703029695
8106,Zvolen,Zvolen,48.5837,19.1332,Slovakia,SK,SVK,Banskobystrický,minor,44502.0,1703102070
506,Kathmandu,Kathmandu,27.7167,85.3166,Nepal,NP,NPL,Bāgmatī,primary,895000.0,1524589448
1421,Jitpur,Jitpur,27.6666,85.3333,Nepal,NP,NPL,,,337785.0,1524593184
1894,Heṭauḍā,Hetauda,27.4167,85.0334,Nepal,NP,NPL,,admin,232334.0,1524551914
2099,Pokhara,Pokhara,28.264,83.972,Nepal,NP,NPL,,admin,200000.0,1524416084
2238,Birāṭnagar,Biratnagar,26.4837,87.2833,Nepal,NP,NPL,,admin,182324.0,1524520011
2767,Birgañj,Birganj,27.0004,84.8666,Nepal,NP,NPL,,,133238.0,1524676691
3664,Nepālgañj,Nepalganj,28.0503,81.6167,Nepal,NP,NPL,,,64400.0,1524207917
5478,Janakpur,Janakpur,26.7288,85.9263,Nepal,NP,NPL,,admin,,1524563587
5623,Butwāl,Butwal,27.7006,83.4484,Nepal,NP,NPL,,admin,,1524843250
5809,Birendranagar,Birendranagar,28.5967,81.6166,Nepal,NP,NPL,,admin,,1524574121
6385,Godāwari̇̄,Godawari,28.8755,80.5776,Nepal,NP,NPL,,admin,,1524020578
7106,Dhangaḍhi̇̄,Dhangadhi,28.695,80.593,Nepal,NP,NPL,,,92294.0,1524561456
7573,Bhairāhawā,Bhairahawa,27.5333,83.3833,Nepal,NP,NPL,,,63367.0,1524444140
8638,Hanumānnagar,Hanumannagar,26.5333,86.7333,Nepal,NP,NPL,,,33061.0,1524363655
9436,Bāglung,Baglung,28.2667,83.5833,Nepal,NP,NPL,,,23296.0,1524266307
10008,Dadeldhurā,Dadeldhura,29.3,80.6,Nepal,NP,NPL,,,19014.0,1524639464
10232,Īlām,Ilam,26.908,87.926,Nepal,NP,NPL,,,17491.0,1524034598
10663,Salyan,Salyan,28.35,82.1833,Nepal,NP,NPL,,,15000.0,1524828921
10664,Rāmechhāp,Ramechhap,27.326,86.087,Nepal,NP,NPL,Janakpur,,15000.0,1524628973
10665,Bhimphedi̇̄,Bhimphedi,27.551,85.13,Nepal,NP,NPL,,,15000.0,1524596923
14443,Jumlā,Jumla,29.25,82.2167,Nepal,NP,NPL,,,9073.0,1524473131
451,Copenhagen,Copenhagen,55.6786,12.5635,Denmark,DK,DNK,Hovedstaden,primary,1085000.0,1208763942
1849,Aarhus,Aarhus,56.1572,10.2107,Denmark,DK,DNK,Midtjylland,minor,237551.0,1208841031
2468,Odense,Odense,55.4004,10.3833,Denmark,DK,DNK,Syddanmark,minor,158222.0,1208194249
2912,Aalborg,Aalborg,57.0337,9.9166,Denmark,DK,DNK,Nordjylland,admin,122219.0,1208789278
3566,Esbjerg,Esbjerg,55.467,8.45,Denmark,DK,DNK,Syddanmark,minor,72205.0,1208757169
3892,Vejle,Vejle,55.709,9.535,Denmark,DK,DNK,Syddanmark,admin,51177.0,1208585023
4219,Viborg,Viborg,56.4333,9.4,Denmark,DK,DNK,Midtjylland,admin,34831.0,1208606810
4384,Hillerød,Hillerod,55.9333,12.3167,Denmark,DK,DNK,Hovedstaden,admin,28313.0,1208278269
5150,Sorø,Soro,55.433,11.5667,Denmark,DK,DNK,Sjælland,admin,7167.0,1208841384
8112,Roskilde,Roskilde,55.65,12.0833,Denmark,DK,DNK,Sjælland,minor,44285.0,1208722269
8879,Svendborg,Svendborg,55.0704,10.6167,Denmark,DK,DNK,Syddanmark,minor,29180.0,1208924964
9355,Frederikshavn,Frederikshavn,57.4337,10.5333,Denmark,DK,DNK,Nordjylland,minor,24103.0,1208910213
386,Geneva,Geneva,46.21,6.14,Switzerland,CH,CHE,Genève,admin,1240000.0,1756810813
434,Zürich,Zurich,47.38,8.55,Switzerland,CH,CHE,Zürich,admin,1108000.0,1756539143
547,Bern,Bern,46.9167,7.467,Switzerland,CH,CHE,Bern,primary,275329.0,1756374318
727,Basel,Basel,47.5804,7.59,Switzerland,CH,CHE,Basel-Stadt,admin,830000.0,1756731313
1701,Lausanne,Lausanne,46.5304,6.65,Switzerland,CH,CHE,Vaud,admin,265702.0,1756055099
1784,Lucerne,Lucerne,47.0504,8.28,Switzerland,CH,CHE,Luzern,admin,250000.0,1756544536
3171,Lugano,Lugano,46.0004,8.9667,Switzerland,CH,CHE,Ticino,,105388.0,1756503816
3502,Biel/Bienne,Biel/Bienne,47.1666,7.25,Switzerland,CH,CHE,Bern,,78708.0,1756649723
3594,Sankt Gallen,Sankt Gallen,47.423,9.362,Switzerland,CH,CHE,Sankt Gallen,admin,70572.0,1756343098
4143,Chur,Chur,46.85,9.5,Switzerland,CH,CHE,Graubünden,admin,38293.0,1756471395
4279,Fribourg,Fribourg,46.8,7.15,Switzerland,CH,CHE,Fribourg,admin,32827.0,1756145667
4313,Neuchâtel,Neuchatel,46.999,6.923,Switzerland,CH,CHE,Neuchâtel,admin,31270.0,1756726571
4529,Zug,Zug,47.179,8.487,Switzerland,CH,CHE,Zug,admin,23435.0,1756703208
4821,Solothurn,Solothurn,47.212,7.537,Switzerland,CH,CHE,Solothurn,,14853.0,1756021237
4846,Schwyz,Schwyz,47.02,8.648,Switzerland,CH,CHE,Schwyz,admin,14177.0,1756270644
4898,Liestal,Liestal,47.483,7.737,Switzerland,CH,CHE,Basel-Landschaft,admin,12832.0,1756371637
5037,Sarnen,Sarnen,46.899,8.243,Switzerland,CH,CHE,Obwalden,admin,9410.0,1756451113
5076,Altdorf,Altdorf,46.879,8.638,Switzerland,CH,CHE,Uri,admin,8678.0,1756957308
5136,Stans,Stans,46.95,8.3833,Switzerland,CH,CHE,Nidwalden,admin,7475.0,1756019042
5239,Glarus,Glarus,47.05,9.0667,Switzerland,CH,CHE,Glarus,admin,5681.0,1756095767
5243,Appenzell,Appenzell,47.3333,9.4167,Switzerland,CH,CHE,Appenzell Innerrhoden,admin,5649.0,1756770881
5636,Solothurn,Solothurn,47.2066,7.5166,Switzerland,CH,CHE,Solothurn,admin,,1756650126
5649,Aarau,Aarau,47.3896,8.0524,Switzerland,CH,CHE,Aargau,admin,,1756722157
5748,Schaffhausen,Schaffhausen,47.6973,8.6349,Switzerland,CH,CHE,Schaffhausen,admin,,1756849233
5931,Delémont,Delemont,47.3664,7.329,Switzerland,CH,CHE,Jura,admin,,1756748908
8590,Schaffhausen,Schaffhausen,47.706,8.633,Switzerland,CH,CHE,Schaffhausen,,33863.0,1756003651
8965,Sion,Sion,46.239,7.354,Switzerland,CH,CHE,Valais,,28045.0,1756457392
9594,Frauenfeld,Frauenfeld,47.568,9.108,Switzerland,CH,CHE,Thurgau,,21979.0,1756399413
10372,Bellinzona,Bellinzona,46.197,9.02,Switzerland,CH,CHE,Ticino,,16572.0,1756130026
10572,Aarau,Aarau,47.39,8.034,Switzerland,CH,CHE,Aargau,,15501.0,1756007454
10588,Herisau,Herisau,47.3833,9.2833,Switzerland,CH,CHE,Appenzell Ausserrhoden,,15438.0,1756581563
11602,Delémont,Delemont,47.37,7.345,Switzerland,CH,CHE,Jura,,11315.0,1756015980
381,Stockholm,Stockholm,59.3508,18.0973,Sweden,SE,SWE,Stockholm,primary,1264000.0,1752425602
999,Göteborg,Goteborg,57.75,12.0,Sweden,SE,SWE,Västra Götaland,admin,537797.0,1752059374
1688,Malmö,Malmo,55.5833,13.0333,Sweden,SE,SWE,Skåne,admin,269349.0,1752705818
2771,Uppsala,Uppsala,59.8601,17.64,Sweden,SE,SWE,Stockholm,,133117.0,1752330831
3132,Västerås,Vasteras,59.63,16.54,Sweden,SE,SWE,Västmanland,admin,107194.0,1752826955
3282,Örebro,Orebro,59.2803,15.22,Sweden,SE,SWE,Örebro,admin,98573.0,1752223019
3303,Linköping,Linkoping,58.41,15.6299,Sweden,SE,SWE,Östergötland,admin,96732.0,1752963378
3362,Helsingborg,Helsingborg,56.0505,12.7,Sweden,SE,SWE,Skåne,minor,91304.0,1752789933
3376,Jönköping,Jonkoping,57.7713,14.165,Sweden,SE,SWE,Jönköping,admin,89780.0,1752079041
3505,Umeå,Umea,63.83,20.24,Sweden,SE,SWE,Västerbotten,admin,78197.0,1752273881
3547,Karlstad,Karlstad,59.3671,13.4999,Sweden,SE,SWE,Värmland,admin,74141.0,1752502445
3621,Gävle,Gavle,60.667,17.1666,Sweden,SE,SWE,Gävleborg,admin,68635.0,1752586931
3746,Växjö,Vaxjo,56.8837,14.8167,Sweden,SE,SWE,Kronoberg,admin,59600.0,1752263370
3822,Halmstad,Halmstad,56.6718,12.8556,Sweden,SE,SWE,Halland,admin,55657.0,1752392511
3936,Luleå,Lulea,65.5966,22.1584,Sweden,SE,SWE,Norrbotten,admin,48638.0,1752765449
3992,Östersund,Ostersund,63.1833,14.65,Sweden,SE,SWE,Jämtland,admin,46178.0,1752026711
4022,Trollhättan,Trollhattan,58.2671,12.3,Sweden,SE,SWE,Västra Götaland,minor,44543.0,1752863731
4180,Falun,Falun,60.613,15.647,Sweden,SE,SWE,Dalarna,admin,36477.0,1752939220
4208,Karlskrona,Karlskrona,56.203,15.296,Sweden,SE,SWE,Blekinge,admin,35212.0,1752316086
4214,Kalmar,Kalmar,56.667,16.3666,Sweden,SE,SWE,Kalmar,admin,35024.0,1752640618
4402,Nyköping,Nykoping,58.764,17.015,Sweden,SE,SWE,Södermanland,admin,27582.0,1752377083
4545,Visby,Visby,57.6337,18.3,Sweden,SE,SWE,Gotland,admin,22593.0,1752027172
4726,Härnösand,Harnosand,62.634,17.934,Sweden,SE,SWE,Västernorrland,admin,17016.0,1752644953
5451,Uppsala,Uppsala,59.85,17.6333,Sweden,SE,SWE,Uppsala,admin,,1752953686
7155,Norrköping,Norrkoping,58.5954,16.1787,Sweden,SE,SWE,Östergötland,minor,88639.0,1752803583
7363,Sundsvall,Sundsvall,62.4001,17.3167,Sweden,SE,SWE,Västernorrland,minor,73389.0,1752024232
7539,Borås,Boras,57.7304,12.92,Sweden,SE,SWE,Västra Götaland,minor,65008.0,1752555835
8308,Borlänge,Borlange,60.4833,15.4167,Sweden,SE,SWE,Dalarna,minor,39422.0,1752944924
8680,Kristianstad,Kristianstad,56.0337,14.1333,Sweden,SE,SWE,Skåne,minor,32188.0,1752606470
8728,Skellefteå,Skelleftea,64.7721,20.95,Sweden,SE,SWE,Västerbotten,minor,31311.0,1752233025
8990,Örnsköldsvik,Ornskoldsvik,63.318,18.7167,Sweden,SE,SWE,Västernorrland,minor,27749.0,1752250773
9614,Vänersborg,Vanersborg,58.363,12.33,Sweden,SE,SWE,Västra Götaland,minor,21835.0,1752467593
10131,Kiruna,Kiruna,67.85,20.2166,Sweden,SE,SWE,Norrbotten,minor,18154.0,1752001526
10688,Mariestad,Mariestad,58.705,13.828,Sweden,SE,SWE,Västra Götaland,minor,14891.0,1752879298
11020,Bollnäs,Bollnas,61.352,16.3666,Sweden,SE,SWE,Gävleborg,minor,13398.0,1752287863
350,Auckland,Auckland,-36.8481,174.763,New Zealand,NZ,NZL,Auckland,admin,1377200.0,1554435911
535,Wellington,Wellington,-41.3,174.7833,New Zealand,NZ,NZL,Wellington,primary,393400.0,1554772152
1303,Manukau City,Manukau City,-37.0,174.885,New Zealand,NZ,NZL,Auckland,,375600.0,1554797148
1333,Christchurch,Christchurch,-43.535,172.63,New Zealand,NZ,NZL,Canterbury,admin,363200.0,1554377228
2034,Waitakere,Waitakere,-36.8524,174.5543,New Zealand,NZ,NZL,Auckland,,208100.0,1554034359
2047,Northcote,Northcote,-36.7913,174.7758,New Zealand,NZ,NZL,Auckland,,205605.0,1554717659
2595,Hamilton,Hamilton,-37.7783,175.2896,New Zealand,NZ,NZL,Waikato,admin,148200.0,1554873040
2914,Tauranga,Tauranga,-37.6964,176.1536,New Zealand,NZ,NZL,Bay of Plenty,,121500.0,1554759867
2955,Dunedin,Dunedin,-45.8854,170.491,New Zealand,NZ,NZL,Otago,admin,117700.0,1554475997
3227,Lower Hutt,Lower Hutt,-41.2037,174.9123,New Zealand,NZ,NZL,Wellington,,102400.0,1554623632
3452,Palmerston North,Palmerston North,-40.3527,175.6072,New Zealand,NZ,NZL,Manawatu-Wanganui,admin,82400.0,1554138183
3725,Nelson,Nelson,-41.2926,173.2474,New Zealand,NZ,NZL,Nelson,admin,60800.0,1554017097
3785,Napier,Napier,-39.49,176.9265,New Zealand,NZ,NZL,Hawke’s Bay,admin,57800.0,1554064936
3880,Whangarei,Whangarei,-35.7256,174.323,New Zealand,NZ,NZL,Northland,admin,52200.0,1554000636
3927,Invercargill,Invercargill,-46.4094,168.365,New Zealand,NZ,NZL,Southland,admin,49200.0,1554148942
4126,Upper Hutt,Upper Hutt,-41.1355,175.029,New Zealand,NZ,NZL,Wellington,,39200.0,1554000042
4235,Gisborne,Gisborne,-38.6633,178.0181,New Zealand,NZ,NZL,Gisborne,admin,34300.0,1554359840
4341,Blenheim,Blenheim,-41.5135,173.955,New Zealand,NZ,NZL,Marlborough,admin,30300.0,1554001426
4670,Whakatane,Whakatane,-37.9574,176.9828,New Zealand,NZ,NZL,Bay of Plenty,admin,18700.0,1554253729
5012,Greymouth,Greymouth,-42.4716,171.2231,New Zealand,NZ,NZL,West Coast,admin,10100.0,1554984303
5338,Waitangi,Waitangi,-44.0263,-176.3696,New Zealand,NZ,NZL,Chatham Islands,admin,300.0,1554847194
5669,Richmond,Richmond,-41.339,173.185,New Zealand,NZ,NZL,Tasman,admin,,1554001427
5795,Stratford,Stratford,-39.3409,174.2845,New Zealand,NZ,NZL,Taranaki,admin,,1554001293
7734,Rotorua,Rotorua,-38.1317,176.2483,New Zealand,NZ,NZL,Bay of Plenty,,56200.0,1554000379
7847,New Plymouth,New Plymouth,-39.0556,174.0748,New Zealand,NZ,NZL,Taranaki,,52500.0,1554939405
7848,Porirua,Porirua,-41.1219,174.8524,New Zealand,NZ,NZL,Wellington,,52500.0,1554561880
8155,Whanganui,Whanganui,-39.9326,175.0393,New Zealand,NZ,NZL,Manawatu-Wanganui,,43200.0,1554827998
9036,Timaru,Timaru,-44.3972,171.2425,New Zealand,NZ,NZL,Canterbury,,27200.0,1554243304
9138,Pukekohe East,Pukekohe East,-37.2015,174.9033,New Zealand,NZ,NZL,,,26300.0,1554599644
9231,Paraparaumu,Paraparaumu,-40.9034,174.9989,New Zealand,NZ,NZL,Wellington,,25263.0,1554166459
9521,Taupo,Taupo,-38.693,176.0771,New Zealand,NZ,NZL,Waikato,,22600.0,1554654784
9832,Masterton,Masterton,-40.9439,175.6456,New Zealand,NZ,NZL,Wellington,,20200.0,1554641049
9933,Levin,Levin,-40.6124,175.2772,New Zealand,NZ,NZL,Manawatu-Wanganui,,19550.0,1554983635
10199,Ashton,Ashton,-43.8983,171.7486,New Zealand,NZ,NZL,Canterbury,,17700.0,1554784264
10367,Macetown,Macetown,-45.0227,168.7251,New Zealand,NZ,NZL,Otago,,16600.0,1554582165
10631,Cambridge,Cambridge,-37.8894,175.4703,New Zealand,NZ,NZL,Waikato,,15192.0,1554000848
11032,Tokoroa,Tokoroa,-38.2245,175.8705,New Zealand,NZ,NZL,Waikato,,13350.0,1554951529
11681,Hawera,Hawera,-39.5795,174.278,New Zealand,NZ,NZL,Taranaki,,11100.0,1554872573
11948,Kairaki,Kairaki,-43.3813,172.651,New Zealand,NZ,NZL,Canterbury,,10200.0,1554001309
13261,Thames,Thames,-37.1384,175.5853,New Zealand,NZ,NZL,Waikato,,6756.0,1554802053
13717,Kerikeri,Kerikeri,-35.2285,173.9507,New Zealand,NZ,NZL,Northland,,5856.0,1554530676
14084,Kaitaia,Kaitaia,-35.1099,173.2727,New Zealand,NZ,NZL,Northland,,5202.0,1554000934
14192,Wanaka,Wanaka,-44.698,169.1449,New Zealand,NZ,NZL,Otago,,5037.0,1554152950
14258,Turangi,Turangi,-38.9889,175.8142,New Zealand,NZ,NZL,Waikato,,3240.0,1554981086
14262,Hokitika,Hokitika,-42.7072,171.01,New Zealand,NZ,NZL,West Coast,,3078.0,1554205461
14268,Renwick,Renwick,-41.2805,174.0166,New Zealand,NZ,NZL,Marlborough,,2928.0,1554865401
14308,Kaikoura,Kaikoura,-42.4012,173.6897,New Zealand,NZ,NZL,Canterbury,,2172.0,1554578431
14312,Te Anau,Te Anau,-45.4074,167.7585,New Zealand,NZ,NZL,Southland,,1857.0,1554603580
14358,Halfmoon Bay,Halfmoon Bay,-46.8876,168.1666,New Zealand,NZ,NZL,Southland,,310.0,1554077152
14393,Glencoe,Glencoe,-46.0947,168.9604,New Zealand,NZ,NZL,Southland,,9750.0,1554979133
15069,Westport,Westport,-41.7638,171.6028,New Zealand,NZ,NZL,West Coast,,3900.0,1554650685
167,Vienna,Vienna,48.2,16.3666,Austria,AT,AUT,Wien,primary,2400000.0,1040261752
1384,Linz,Linz,48.3192,14.2888,Austria,AT,AUT,Oberösterreich,admin,349161.0,1040261171
1710,Graz,Graz,47.0778,15.41,Austria,AT,AUT,Steiermark,admin,263234.0,1040184559
2043,Salzburg,Salzburg,47.8105,13.04,Austria,AT,AUT,Salzburg,admin,206279.0,1040312147
2505,Innsbruck,Innsbruck,47.2804,11.41,Austria,AT,AUT,Tirol,admin,155214.0,1040038924
3368,Klagenfurt,Klagenfurt,46.6203,14.31,Austria,AT,AUT,Kärnten,admin,90610.0,1040149651
4418,Bregenz,Bregenz,47.5167,9.7667,Austria,AT,AUT,Vorarlberg,admin,26928.0,1040174258
4881,Eisenstadt,Eisenstadt,47.8333,16.5333,Austria,AT,AUT,Burgenland,admin,13165.0,1040751740
5934,Sankt Pölten,Sankt Polten,48.2,15.6333,Austria,AT,AUT,Niederösterreich,admin,,1040313109
7222,Wiener Neustadt,Wiener Neustadt,47.816,16.25,Austria,AT,AUT,Niederösterreich,minor,82762.0,1040389518
159,George Town,George Town,5.4136,100.3294,Malaysia,MY,MYS,Pulau Pinang,admin,2500000.0,1458236750
328,Kuala Lumpur,Kuala Lumpur,3.1667,101.7,Malaysia,MY,MYS,Kuala Lumpur ,primary,1448000.0,1458988644
637,Klang,Klang,3.0204,101.55,Malaysia,MY,MYS,Selangor,,956000.0,1458509635
687,Johor Bahru,Johor Bahru,1.48,103.73,Malaysia,MY,MYS,Johor,admin,875000.0,1458747615
738,Butterworth,Butterworth,5.4171,100.4,Malaysia,MY,MYS,Pulau Pinang,,821652.0,1458469233
767,Melaka,Melaka,2.2064,102.2465,Malaysia,MY,MYS,Melaka,admin,788706.0,1458467506
854,Ipoh,Ipoh,4.6,101.065,Malaysia,MY,MYS,Perak,admin,673318.0,1458423505
955,Kuching,Kuching,1.53,110.33,Malaysia,MY,MYS,Sarawak,admin,570407.0,1458462262
1012,Kota Kinabalu,Kota Kinabalu,5.98,116.11,Malaysia,MY,MYS,Sabah,admin,527671.0,1458441859
1034,Kota Bharu,Kota Bharu,6.12,102.23,Malaysia,MY,MYS,Kelantan,admin,505583.0,1458150101
1086,Shah Alam,Shah Alam,3.0667,101.55,Malaysia,MY,MYS,Selangor,admin,481654.0,1458194263
1259,Sandakan,Sandakan,5.843,118.108,Malaysia,MY,MYS,Sabah,,392288.0,1458405180
1313,Seremban,Seremban,2.7105,101.94,Malaysia,MY,MYS,Negeri Sembilan,admin,372917.0,1458051507
1328,Kuantan,Kuantan,3.83,103.32,Malaysia,MY,MYS,Pahang,admin,366229.0,1458763489
1345,Sungai Petani,Sungai Petani,5.6497,100.4793,Malaysia,MY,MYS,Kedah,,358499.0,1458639918
1372,Kuala Terengganu,Kuala Terengganu,5.3304,103.12,Malaysia,MY,MYS,Terengganu,admin,350210.0,1458475563
1423,Alor Setar,Alor Setar,6.1133,100.3729,Malaysia,MY,MYS,Kedah,admin,336475.0,1458273978
1533,Tawau,Tawau,4.271,117.896,Malaysia,MY,MYS,Sabah,,306462.0,1458745722
1852,Taiping,Taiping,4.865,100.72,Malaysia,MY,MYS,Perak,,237095.0,1458446120
1922,Miri,Miri,4.3999,113.9845,Malaysia,MY,MYS,Sarawak,,228212.0,1458079883
2061,Sibu,Sibu,2.303,111.843,Malaysia,MY,MYS,Sarawak,,203832.0,1458970454
2109,Batu Pahat,Batu Pahat,1.8504,102.9333,Malaysia,MY,MYS,Johor,,199619.0,1458310769
2165,Muar,Muar,2.0337,102.5666,Malaysia,MY,MYS,Johor,,191346.0,1458170112
2354,Kluang,Kluang,2.0383,103.3179,Malaysia,MY,MYS,Johor,,169828.0,1458692921
2560,Bintulu,Bintulu,3.1664,113.036,Malaysia,MY,MYS,Sarawak,,151617.0,1458164361
3166,Lahad Datu,Lahad Datu,5.0464,118.336,Malaysia,MY,MYS,Sabah,,105622.0,1458472057
3237,Teluk Intan,Teluk Intan,4.0119,101.0314,Malaysia,MY,MYS,Perak,,101659.0,1458126062
3451,Cukai,Cukai,4.2332,103.4479,Malaysia,MY,MYS,Terengganu,,82425.0,1458033606
3627,Putrajaya,Putrajaya,2.914,101.7019,Malaysia,MY,MYS,Putrajaya,admin,67964.0,1458000206
3671,Kangar,Kangar,6.433,100.19,Malaysia,MY,MYS,Perlis,admin,63869.0,1458939333
5777,Labuan,Labuan,5.2803,115.2475,Malaysia,MY,MYS,Labuan,admin,,1458460967
8280,Raub,Raub,3.7927,101.8423,Malaysia,MY,MYS,Pahang,,40024.0,1458881822
10585,Kuala Lipis,Kuala Lipis,4.184,102.042,Malaysia,MY,MYS,Pahang,,15448.0,1458124212
111,Tel Aviv-Yafo,Tel Aviv-Yafo,32.08,34.77,Israel,IL,ISR,Tel Aviv,admin,3112000.0,1376401542
476,Jerusalem,Jerusalem,31.7784,35.2066,Israel,IL,ISR,,primary,1029300.0,1376261644
489,Haifa,Haifa,32.8204,34.98,Israel,IL,ISR,Haifa,admin,1011000.0,1376133727
2041,Beersheba,Beersheba,31.25,34.83,Israel,IL,ISR,Southern,admin,206408.0,1376023307
2562,Nazareth,Nazareth,32.704,35.2955,Israel,IL,ISR,Northern,admin,151459.0,1376505625
3672,Ramla,Ramla,31.9167,34.8667,Israel,IL,ISR,Central,admin,63860.0,1376321361
107,Casablanca,Casablanca,33.6,-7.6164,Morocco,MA,MAR,Casablanca-Settat,admin,3181000.0,1504175315
255,Rabat,Rabat,34.0253,-6.8361,Morocco,MA,MAR,Rabat-Salé-Kénitra,primary,1705000.0,1504023252
497,Fès,Fes,34.0546,-5.0004,Morocco,MA,MAR,Fès-Meknès,admin,1002000.0,1504861997
693,Marrakech,Marrakech,31.63,-8.0,Morocco,MA,MAR,Marrakech-Safi,admin,872000.0,1504172585
737,Agadir,Agadir,30.44,-9.62,Morocco,MA,MAR,Souss-Massa,admin,825467.0,1504116858
798,Tangier,Tangier,35.7473,-5.8327,Morocco,MA,MAR,Tanger-Tétouan-Al Hoceïma,admin,750060.0,1504861504
842,Meknès,Meknes,33.9004,-5.56,Morocco,MA,MAR,Fès-Meknès,,697628.0,1504333193
979,Kenitra,Kenitra,34.2704,-6.58,Morocco,MA,MAR,Rabat-Salé-Kénitra,,551786.0,1504534876
1213,Oujda-Angad,Oujda-Angad,34.69,-1.91,Morocco,MA,MAR,Oriental,admin,409391.0,1504891036
1365,Safi,Safi,32.32,-9.24,Morocco,MA,MAR,Marrakech-Safi,,353476.0,1504000717
1532,Ksar El Kebir,Ksar El Kebir,35.0204,-5.91,Morocco,MA,MAR,Tanger-Tétouan-Al Hoceïma,,306600.0,1504230428
1920,Errachidia,Errachidia,31.9404,-4.45,Morocco,MA,MAR,Drâa-Tafilalet,,228489.0,1504005759
2108,Taza,Taza,34.2204,-4.02,Morocco,MA,MAR,Fès-Meknès,,199633.0,1504405154
2251,El Jadid,El Jadid,33.2604,-8.51,Morocco,MA,MAR,Casablanca-Settat,,180470.0,1504964063
2431,Settat,Settat,33.0104,-7.62,Morocco,MA,MAR,Casablanca-Settat,,161748.0,1504720478
2925,Larache,Larache,35.2004,-6.16,Morocco,MA,MAR,Tanger-Tétouan-Al Hoceïma,,120082.0,1504637172
2993,Guelmim,Guelmim,28.98,-10.07,Morocco,MA,MAR,Guelmim-Oued Noun,admin,115267.0,1504110861
3606,Ouezzane,Ouezzane,34.8103,-5.57,Morocco,MA,MAR,Tanger-Tétouan-Al Hoceïma,,69658.0,1504736892
5456,Béni Mellal,Beni Mellal,32.3373,-6.3498,Morocco,MA,MAR,Béni Mellal-Khénifra,admin,,1504131639
7542,Tan-Tan,Tan-Tan,28.4304,-11.1,Morocco,MA,MAR,Guelmim-Oued Noun,,64868.0,1504164174
7702,Tiznit,Tiznit,29.7104,-9.74,Morocco,MA,MAR,Souss-Massa,,57705.0,1504399838
99,Pyongyang,Pyongyang,39.0194,125.7547,"Korea, North",KP,PRK,P’yŏngyang,primary,3300000.0,1408738594
424,Namp’o,Namp'o,38.7669,125.4524,"Korea, North",KP,PRK,,admin,1127000.0,1408892768
779,Hamhŭng,Hamhung,39.9101,127.5454,"Korea, North",KP,PRK,Hamnam,admin,773000.0,1408482040
795,Hŭngnam,Hungnam,39.8231,127.6232,"Korea, North",KP,PRK,Hamnam,,751322.0,1408328889
855,Ch’ŏngjin,Ch'ongjin,41.7846,129.79,"Korea, North",KP,PRK,Hambuk,minor,672614.0,1408498177
1236,Sunch’ŏn,Sunch'on,39.4236,125.939,"Korea, North",KP,PRK,P’yŏngnam,,400629.0,1408510801
1418,Kaesŏng,Kaesong,37.964,126.5644,"Korea, North",KP,PRK,Hwangnam,minor,338155.0,1408725697
1447,Wŏnsan,Wonsan,39.1605,127.4308,"Korea, North",KP,PRK,Kangwŏn,admin,329207.0,1408692125
1568,Kanggye,Kanggye,40.9732,126.6032,"Korea, North",KP,PRK,Chagang,admin,299514.0,1408728939
1608,Sinŭiju,Sinuiju,40.0859,124.4213,"Korea, North",KP,PRK,P’yŏngbuk,admin,288112.0,1408740449
1925,Hyesan,Hyesan,41.3927,128.1927,"Korea, North",KP,PRK,Yanggang,admin,227461.0,1408642146
1951,Haeju,Haeju,38.0394,125.7144,"Korea, North",KP,PRK,Hwangnam,admin,224231.0,1408348983
2197,Kimch’aek-si,Kimch'aek-si,40.6723,129.2027,"Korea, North",KP,PRK,Hambuk,minor,187270.0,1408037150
2202,Manp’o,Manp'o,41.1454,126.2958,"Korea, North",KP,PRK,Chagang,,186827.0,1408334845
2511,Sariwŏn,Sariwon,38.507,125.762,"Korea, North",KP,PRK,Hwangbuk,admin,154942.0,1408018673
2687,Chŏngju,Chongju,39.6813,125.2163,"Korea, North",KP,PRK,P’yŏngbuk,,141769.0,1408650871
5805,P’yŏngsŏng,P'yongsong,39.2464,125.8719,"Korea, North",KP,PRK,P’yŏngnam,admin,,1408000381
6142,Rajin,Rajin,42.2556,130.2831,"Korea, North",KP,PRK,Nasŏn,admin,,1408449973
7258,Namsan,Namsan,42.2304,129.2304,"Korea, North",KP,PRK,Hambuk,minor,80146.0,1408000884
7360,Munch’ŏn,Munch'on,39.3813,127.2517,"Korea, North",KP,PRK,Kangwŏn,,73619.0,1408134393
7438,Ongjin,Ongjin,37.9371,125.3571,"Korea, North",KP,PRK,Hwangnam,,69195.0,1408748147
7513,P’yŏngsan,P'yongsan,38.3367,126.3866,"Korea, North",KP,PRK,Hwangbuk,,66260.0,1408433221
7639,Sŏnbong,Sonbong,42.3377,130.4027,"Korea, North",KP,PRK,Nasŏn,minor,60864.0,1408519732
7947,Changyŏn,Changyon,38.2517,125.1021,"Korea, North",KP,PRK,Hwangnam,,48984.0,1408800916
9950,Sil-li,Sil-li,39.488,125.464,"Korea, North",KP,PRK,P’yŏngnam,,19463.0,1408623890
14561,Ch’osan-ŭp,Ch'osan-up,40.8255,125.8008,"Korea, North",KP,PRK,Chagang,,7786.0,1408838898
15074,P’ungsan,P'ungsan,40.8175,128.1553,"Korea, North",KP,PRK,Yanggang,,3839.0,1408098792
15164,Tae-dong,Tae-dong,40.6171,125.4501,"Korea, North",KP,PRK,P’yŏngbuk,,1884.0,1408763732
98,Rome,Rome,41.896,12.4833,Italy,IT,ITA,Lazio,primary,3339000.0,1380382862
120,Milan,Milan,45.47,9.205,Italy,IT,ITA,Lombardy,admin,2945000.0,1380724377
179,Naples,Naples,40.84,14.245,Italy,IT,ITA,Campania,admin,2250000.0,1380646673
264,Turin,Turin,45.0704,7.67,Italy,IT,ITA,Piedmont,admin,1652000.0,1380244627
306,Florence,Florence,43.78,11.25,Italy,IT,ITA,Tuscany,admin,1500000.0,1380726561
640,Salerno,Salerno,40.6804,14.7699,Italy,IT,ITA,Campania,minor,954265.0,1380863448
704,Palermo,Palermo,38.125,13.35,Italy,IT,ITA,Sicilia,admin,863000.0,1380428434
852,Catania,Catania,37.5,15.08,Italy,IT,ITA,Sicilia,minor,674542.0,1380562508
876,Genoa,Genoa,44.41,8.93,Italy,IT,ITA,Liguria,admin,647497.0,1380716540
1048,Bari,Bari,41.1142,16.8728,Italy,IT,ITA,Puglia,admin,500577.0,1380991126
1077,Bologna,Bologna,44.5004,11.34,Italy,IT,ITA,Emilia-Romagna,admin,488172.0,1380202039
1386,Verona,Verona,45.4404,10.99,Italy,IT,ITA,Veneto,minor,347459.0,1380324879
1504,Pescara,Pescara,42.4554,14.2187,Italy,IT,ITA,Abruzzo,minor,314789.0,1380000966
1596,Cagliari,Cagliari,39.2224,9.104,Italy,IT,ITA,Sardegna,admin,291511.0,1380685705
1681,Venice,Venice,45.4387,12.335,Italy,IT,ITA,Veneto,admin,270816.0,1380660414
1766,Messina,Messina,38.2005,15.55,Italy,IT,ITA,Sicilia,minor,252026.0,1380622386
1781,Caserta,Caserta,41.06,14.3374,Italy,IT,ITA,Campania,minor,250000.0,1380614087
1782,Como,Como,45.81,9.08,Italy,IT,ITA,Lombardy,minor,250000.0,1380994905
1995,Trieste,Trieste,45.6504,13.8,Italy,IT,ITA,Friuli-Venezia Giulia,admin,216035.0,1380102581
2065,Pisa,Pisa,43.7205,10.4,Italy,IT,ITA,Tuscany,minor,203336.0,1380310225
2079,Taranto,Taranto,40.5084,17.23,Italy,IT,ITA,Puglia,minor,202033.0,1380707445
2101,Bergamo,Bergamo,45.7004,9.67,Italy,IT,ITA,Lombardy,minor,200000.0,1380253521
2252,Reggio di Calabria,Reggio di Calabria,38.115,15.6414,Italy,IT,ITA,Calabria,minor,180353.0,1380630212
2285,Treviso,Treviso,45.67,12.24,Italy,IT,ITA,Veneto,minor,177309.0,1380900516
2304,Modena,Modena,44.65,10.92,Italy,IT,ITA,Emilia-Romagna,minor,175502.0,1380306270
2392,Parma,Parma,44.8104,10.32,Italy,IT,ITA,Emilia-Romagna,minor,166011.0,1380655938
2426,Lecce,Lecce,40.3604,18.15,Italy,IT,ITA,Puglia,minor,162582.0,1380057273
2493,Livorno,Livorno,43.5511,10.3023,Italy,IT,ITA,Tuscany,minor,156274.0,1380159305
2506,Foggia,Foggia,41.4605,15.56,Italy,IT,ITA,Puglia,minor,155203.0,1380084447
2586,Perugia,Perugia,43.1104,12.39,Italy,IT,ITA,Umbria,admin,149125.0,1380939013
2756,Ravenna,Ravenna,44.4204,12.22,Italy,IT,ITA,Emilia-Romagna,minor,134631.0,1380964180
2792,Ferrara,Ferrara,44.8504,11.6099,Italy,IT,ITA,Emilia-Romagna,minor,130992.0,1380682411
2897,Siracusa,Siracusa,37.0704,15.29,Italy,IT,ITA,Sicilia,minor,123657.0,1380071816
2918,Sassari,Sassari,40.73,8.57,Italy,IT,ITA,Sardegna,minor,120729.0,1380371433
2936,Udine,Udine,46.07,13.24,Italy,IT,ITA,Friuli-Venezia Giulia,minor,119009.0,1380396446
3121,Barletta,Barletta,41.32,16.27,Italy,IT,ITA,Puglia,minor,107830.0,1380940717
3122,Trento,Trento,46.0804,11.12,Italy,IT,ITA,Trentino-Alto Adige,admin,107808.0,1380953307
3192,Brindisi,Brindisi,40.6403,17.93,Italy,IT,ITA,Puglia,minor,104437.0,1380201254
3252,Novara,Novara,45.45,8.62,Italy,IT,ITA,Piedmont,minor,100910.0,1380911437
3261,Ancona,Ancona,43.6004,13.4999,Italy,IT,ITA,Marche,admin,100507.0,1380597324
3319,Catanzaro,Catanzaro,38.9004,16.6,Italy,IT,ITA,Calabria,admin,95251.0,1380650072
3616,Potenza,Potenza,40.642,15.799,Italy,IT,ITA,Basilicata,admin,69060.0,1380649430
3622,L’Aquila,L'Aquila,42.3504,13.39,Italy,IT,ITA,Abruzzo,admin,68503.0,1380218474
3898,Campobasso,Campobasso,41.563,14.656,Italy,IT,ITA,Molise,admin,50762.0,1380959273
4248,Aosta,Aosta,45.737,7.315,Italy,IT,ITA,Valle d’Aosta,admin,34062.0,1380291310
7068,Bolzano,Bolzano,46.5004,11.36,Italy,IT,ITA,Trentino-Alto Adige,minor,95895.0,1380677819
7117,Arezzo,Arezzo,43.4617,11.875,Italy,IT,ITA,Tuscany,minor,91589.0,1380418355
7291,Marsala,Marsala,37.8054,12.4387,Italy,IT,ITA,Sicilia,,77784.0,1380770056
7406,Asti,Asti,44.93,8.21,Italy,IT,ITA,Piedmont,minor,71276.0,1380024585
7443,Ragusa,Ragusa,36.93,14.73,Italy,IT,ITA,Sicilia,minor,68956.0,1380117871
7618,Benevento,Benevento,41.1337,14.75,Italy,IT,ITA,Campania,minor,61791.0,1380723198
7629,Civitavecchia,Civitavecchia,42.1004,11.8,Italy,IT,ITA,Lazio,,61316.0,1380282443
7654,Crotone,Crotone,39.0833,17.1233,Italy,IT,ITA,Calabria,minor,60010.0,1380444441
7844,Siena,Siena,43.317,11.35,Italy,IT,ITA,Tuscany,minor,52625.0,1380088439
8069,Olbia,Olbia,40.9143,9.5151,Italy,IT,ITA,Sardegna,minor,45366.0,1380424474
8585,Vibo Valentia,Vibo Valentia,38.6666,16.1,Italy,IT,ITA,Calabria,minor,33957.0,1380359147
97,Algiers,Algiers,36.7631,3.0506,Algeria,DZ,DZA,Alger,primary,3354000.0,1012973369
761,Oran,Oran,35.71,-0.62,Algeria,DZ,DZA,Oran,admin,798000.0,1012126319
910,Constantine,Constantine,36.36,6.5999,Algeria,DZ,DZA,Constantine,admin,605179.0,1012275076
1027,Blida,Blida,36.4203,2.83,Algeria,DZ,DZA,Blida,admin,511348.0,1012045589
1043,Annaba,Annaba,36.92,7.76,Algeria,DZ,DZA,Annaba,admin,503524.0,1012600001
1141,Chlef,Chlef,36.1704,1.32,Algeria,DZ,DZA,Chlef,admin,449167.0,1012772239
1284,Bejaïa,Bejaia,36.7604,5.07,Algeria,DZ,DZA,Bejaïa,admin,384937.0,1012140298
1645,Batna,Batna,35.57,6.17,Algeria,DZ,DZA,Batna,admin,280798.0,1012093229
1665,Sétif,Setif,36.18,5.4,Algeria,DZ,DZA,Sétif,admin,274744.0,1012981116
1912,Tlemcen,Tlemcen,34.8904,-1.32,Algeria,DZ,DZA,Tlemcen,admin,229777.0,1012978325
1943,Skikda,Skikda,36.8804,6.9,Algeria,DZ,DZA,Skikda,admin,225181.0,1012619903
2030,Sidi Bel Abbès,Sidi Bel Abbes,35.1903,-0.64,Algeria,DZ,DZA,Sidi Bel Abbès,admin,208604.0,1012123414
2077,Biskra,Biskra,34.86,5.73,Algeria,DZ,DZA,Biskra,admin,202103.0,1012947247
2189,Mostaganem,Mostaganem,35.9404,0.09,Algeria,DZ,DZA,Mostaganem,admin,188354.0,1012061703
2220,Tiaret,Tiaret,35.3804,1.32,Algeria,DZ,DZA,Tiaret,admin,184195.0,1012785868
2283,El Oued,El Oued,33.3704,6.86,Algeria,DZ,DZA,El Oued,admin,177497.0,1012148937
2296,Ouargla,Ouargla,31.97,5.34,Algeria,DZ,DZA,Ouargla,admin,176271.0,1012425687
2339,Tébessa,Tebessa,35.4104,8.12,Algeria,DZ,DZA,Tébessa,admin,171742.0,1012196375
2343,Djelfa,Djelfa,34.68,3.25,Algeria,DZ,DZA,Djelfa,admin,170901.0,1012268984
2578,M’Sila,M'Sila,35.7,4.545,Algeria,DZ,DZA,M’sila,admin,150000.0,1012857730
2600,Jijel,Jijel,36.822,5.766,Algeria,DZ,DZA,Jijel,admin,148000.0,1012782547
2605,Médéa,Medea,36.2704,2.77,Algeria,DZ,DZA,Médéa,admin,147707.0,1012758282
2658,Tizi Ouzou,Tizi Ouzou,36.8,4.0333,Algeria,DZ,DZA,Tizi Ouzou,admin,144000.0,1012126997
2666,Béchar,Bechar,31.6111,-2.23,Algeria,DZ,DZA,Béchar,admin,143382.0,1012371820
2683,Saïda,Saida,34.8404,0.14,Algeria,DZ,DZA,Saïda,admin,142213.0,1012285874
2709,Bordj Bou Arreridj,Bordj Bou Arreridj,36.059,4.63,Algeria,DZ,DZA,Bordj Bou Arréridj,admin,140000.0,1012016677
2750,Souk Ahras,Souk Ahras,36.2904,7.95,Algeria,DZ,DZA,Souk Ahras,admin,134947.0,1012419619
2762,Touggourt,Touggourt,33.1,6.06,Algeria,DZ,DZA,Ouargla,,133954.0,1012546670
2876,Ghardaïa,Ghardaia,32.49,3.67,Algeria,DZ,DZA,Ghardaïa,admin,125480.0,1012074690
2898,Guelma,Guelma,36.466,7.428,Algeria,DZ,DZA,Guelma,admin,123590.0,1012266321
3021,Laghouat,Laghouat,33.81,2.88,Algeria,DZ,DZA,Laghouat,admin,113872.0,1012233848
3077,Bouira,Bouira,36.3805,3.9,Algeria,DZ,DZA,Bouira,admin,110144.0,1012006499
3116,Mascara,Mascara,35.4004,0.14,Algeria,DZ,DZA,Mascara,admin,108230.0,1012738269
3255,Oum el Bouaghi,Oum el Bouaghi,35.85,7.15,Algeria,DZ,DZA,Oum el Bouaghi,admin,100821.0,1012958880
3534,Tamanrasset,Tamanrasset,22.785,5.5228,Algeria,DZ,DZA,Tamanrasset,admin,76000.0,1012765474
3636,El Bayadh,El Bayadh,33.6904,1.01,Algeria,DZ,DZA,El Bayadh,admin,67413.0,1012906892
3801,Adrar,Adrar,27.87,-0.29,Algeria,DZ,DZA,Adrar,admin,56910.0,1012462113
4686,Tindouf,Tindouf,27.6742,-8.1478,Algeria,DZ,DZA,Tindouf,admin,18270.0,1012450434
5113,Illizi,Illizi,26.4834,8.4666,Algeria,DZ,DZA,Illizi,admin,7957.0,1012499058
5482,Khenchela,Khenchela,35.4358,7.1433,Algeria,DZ,DZA,Khenchela,admin,,1012495148
5560,Boumerdes,Boumerdes,36.759,3.4748,Algeria,DZ,DZA,Boumerdes,admin,,1012627486
5715,Relizane,Relizane,35.7373,0.556,Algeria,DZ,DZA,Relizane,admin,,1012939885
5757,Aïn Temouchent,Ain Temouchent,35.2975,-1.1404,Algeria,DZ,DZA,Aïn Temouchent,admin,,1012763655
5845,Aïn Defla,Ain Defla,36.2641,1.9679,Algeria,DZ,DZA,Aïn Defla,admin,,1012656497
5894,Mila,Mila,36.4503,6.2644,Algeria,DZ,DZA,Mila,admin,,1012656063
5960,Tipasa,Tipasa,36.5897,2.4475,Algeria,DZ,DZA,Tipaza,admin,,1012866308
5997,Tissemsilt,Tissemsilt,35.6072,1.8108,Algeria,DZ,DZA,Tissemsilt,admin,,1012743339
6113,El Tarf,El Tarf,36.7672,8.3138,Algeria,DZ,DZA,El Tarf,admin,,1012205687
6940,Naama,Naama,33.2667,-0.3167,Algeria,DZ,DZA,Naama,admin,,1012850542
7571,Aïn Sefra,Ain Sefra,32.7604,-0.5799,Algeria,DZ,DZA,Naama,,63420.0,1012884513
7935,Timimoun,Timimoun,29.2365,0.27,Algeria,DZ,DZA,Adrar,,49237.0,1012351010
7937,I-n-Salah,I-n-Salah,27.2166,2.4666,Algeria,DZ,DZA,Tamanrasset,,49223.0,1012201146
8645,Reggane,Reggane,26.7,0.1666,Algeria,DZ,DZA,Adrar,,32974.0,1012709576
8686,El Golea,El Golea,30.5666,2.8833,Algeria,DZ,DZA,Ghardaïa,,32049.0,1012834851
10138,Hassi Messaoud,Hassi Messaoud,31.7023,6.0545,Algeria,DZ,DZA,Ouargla,,18124.0,1012339655
10787,Abadla,Abadla,31.0171,-2.7333,Algeria,DZ,DZA,Béchar,,14364.0,1012262770
14891,Beni Ounif,Beni Ounif,32.0493,-1.2514,Algeria,DZ,DZA,Béchar,,5628.0,1012327989
15106,I-n-Amguel,I-n-Amguel,23.6939,5.1647,Algeria,DZ,DZA,Tamanrasset,,3030.0,1012162135
15281,Djanet,Djanet,24.5529,9.4823,Algeria,DZ,DZA,Illizi,,666.0,1012827195
15375,I-n-Amenas,I-n-Amenas,28.0503,9.55,Algeria,DZ,DZA,Illizi,,216.0,1012221429
96,Berlin,Berlin,52.5218,13.4015,Germany,DE,DEU,Berlin,primary,3406000.0,1276451290
121,Stuttgart,Stuttgart,48.78,9.2,Germany,DE,DEU,Baden-Württemberg,admin,2944700.0,1276171358
127,Frankfurt,Frankfurt,50.1,8.675,Germany,DE,DEU,Hesse,minor,2895000.0,1276054552
172,Mannheim,Mannheim,49.5004,8.47,Germany,DE,DEU,Baden-Württemberg,minor,2362000.0,1276150104
239,Hamburg,Hamburg,53.55,10.0,Germany,DE,DEU,Hamburg,admin,1757000.0,1276041799
246,Essen,Essen,51.45,7.0166,Germany,DE,DEU,North Rhine-Westphalia,minor,1742135.0,1276769247
378,Duisburg,Duisburg,51.43,6.75,Germany,DE,DEU,North Rhine-Westphalia,minor,1276757.0,1276977172
379,Munich,Munich,48.1299,11.575,Germany,DE,DEU,Bavaria,admin,1275000.0,1276692352
391,Düsseldorf,Dusseldorf,51.2204,6.78,Germany,DE,DEU,North Rhine-Westphalia,admin,1220000.0,1276615258
495,Cologne,Cologne,50.93,6.95,Germany,DE,DEU,North Rhine-Westphalia,,1004000.0,1276015998
776,Wuppertal,Wuppertal,51.25,7.17,Germany,DE,DEU,North Rhine-Westphalia,minor,776525.0,1276004611
782,Saarbrücken,Saarbrucken,49.2504,6.97,Germany,DE,DEU,Saarland,admin,770001.0,1276419711
811,Nuremberg,Nuremberg,49.45,11.08,Germany,DE,DEU,Bavaria,minor,737304.0,1276166609
817,Bremen,Bremen,53.08,8.8,Germany,DE,DEU,Bremen,admin,724909.0,1276376509
819,Hannover,Hannover,52.367,9.7167,Germany,DE,DEU,Lower Saxony,admin,722490.0,1276457707
849,Bonn,Bonn,50.7205,7.08,Germany,DE,DEU,North Rhine-Westphalia,minor,680543.0,1276807850
898,Dresden,Dresden,51.05,13.75,Germany,DE,DEU,Saxony,admin,617515.0,1276561036
899,Wiesbaden,Wiesbaden,50.0804,8.25,Germany,DE,DEU,Hesse,admin,617126.0,1276652118
936,Dortmund,Dortmund,51.53,7.45,Germany,DE,DEU,North Rhine-Westphalia,minor,588462.0,1276562886
992,Leipzig,Leipzig,51.3354,12.41,Germany,DE,DEU,Saxony,minor,542529.0,1276563678
1186,Heidelberg,Heidelberg,49.42,8.7,Germany,DE,DEU,Baden-Württemberg,minor,426590.0,1276519742
1296,Karlsruhe,Karlsruhe,49.0,8.4,Germany,DE,DEU,Baden-Württemberg,minor,377487.0,1276923210
1344,Augsburg,Augsburg,48.35,10.9,Germany,DE,DEU,Bavaria,minor,358989.0,1276314100
1441,Bielefeld,Bielefeld,52.03,8.53,Germany,DE,DEU,North Rhine-Westphalia,minor,331906.0,1276112885
1510,Koblenz,Koblenz,50.3505,7.6,Germany,DE,DEU,Rhineland-Palatinate,minor,312633.0,1276605495
1551,Chemnitz,Chemnitz,50.83,12.92,Germany,DE,DEU,Saxony,minor,302643.0,1276519956
1602,Kassel,Kassel,51.3,9.5,Germany,DE,DEU,Hesse,minor,289924.0,1276791686
1685,Münster,Munster,51.9704,7.62,Germany,DE,DEU,North Rhine-Westphalia,minor,270184.0,1276714504
1687,Kiel,Kiel,54.3304,10.13,Germany,DE,DEU,Schleswig-Holstein,admin,269427.0,1276305306
1752,Freiburg im Breisgau,Freiburg im Breisgau,48.0004,7.8699,Germany,DE,DEU,Baden-Württemberg,minor,254889.0,1276371228
1818,Braunschweig,Braunschweig,52.25,10.5,Germany,DE,DEU,Lower Saxony,minor,244715.0,1276941443
1847,Fürth,Furth,49.47,11.0,Germany,DE,DEU,Bavaria,minor,237844.0,1276580165
1867,Lübeck,Lubeck,53.8704,10.67,Germany,DE,DEU,Schleswig-Holstein,minor,235390.0,1276852342
1902,Osnabrück,Osnabruck,52.2804,8.05,Germany,DE,DEU,Lower Saxony,minor,231268.0,1276554949
1911,Magdeburg,Magdeburg,52.1304,11.62,Germany,DE,DEU,Saxony-Anhalt,admin,229826.0,1276418236
1982,Potsdam,Potsdam,52.4004,13.07,Germany,DE,DEU,Brandenburg,admin,218095.0,1276395100
2067,Erfurt,Erfurt,50.9701,11.03,Germany,DE,DEU,Thuringia,admin,203254.0,1276924655
2070,Rostock,Rostock,54.0704,12.15,Germany,DE,DEU,Mecklenburg-Western Pomerania,,203080.0,1276210265
2218,Mainz,Mainz,49.9825,8.2732,Germany,DE,DEU,Rhineland-Palatinate,admin,184997.0,1276801317
2329,Ulm,Ulm,48.4004,10.0,Germany,DE,DEU,Baden-Württemberg,minor,172955.0,1276002212
2366,Würzburg,Wurzburg,49.8004,9.95,Germany,DE,DEU,Bavaria,minor,168561.0,1276233514
2379,Oldenburg,Oldenburg,53.13,8.22,Germany,DE,DEU,Lower Saxony,minor,167458.0,1276946953
2411,Regensburg,Regensburg,49.0204,12.12,Germany,DE,DEU,Bavaria,minor,164359.0,1276000325
2418,Ingolstadt,Ingolstadt,48.7704,11.45,Germany,DE,DEU,Bavaria,minor,163325.0,1276803150
2714,Göttingen,Gottingen,51.5204,9.92,Germany,DE,DEU,Lower Saxony,minor,139419.0,1276211234
2725,Bremerhaven,Bremerhaven,53.5504,8.58,Germany,DE,DEU,Bremen,minor,137751.0,1276991229
3181,Cottbus,Cottbus,51.7704,14.33,Germany,DE,DEU,Brandenburg,minor,105067.0,1276436655
3188,Jena,Jena,50.9304,11.58,Germany,DE,DEU,Thuringia,minor,104712.0,1276659978
3189,Gera,Gera,50.8704,12.07,Germany,DE,DEU,Thuringia,minor,104659.0,1276548165
3304,Schwerin,Schwerin,53.6333,11.4167,Germany,DE,DEU,Mecklenburg-Western Pomerania,admin,96641.0,1276221707
7047,Flensburg,Flensburg,54.7837,9.4333,Germany,DE,DEU,Schleswig-Holstein,minor,97930.0,1276853315
7094,Rosenheim,Rosenheim,47.8503,12.1333,Germany,DE,DEU,Bavaria,minor,92809.0,1276301675
7225,Gießen,Giessen,50.5837,8.65,Germany,DE,DEU,Hesse,minor,82358.0,1276576770
7628,Stralsund,Stralsund,54.3004,13.1,Germany,DE,DEU,Mecklenburg-Western Pomerania,minor,61368.0,1276640152
7632,Coburg,Coburg,50.2666,10.9666,Germany,DE,DEU,Bavaria,minor,61054.0,1276428862
7736,Hof,Hof,50.317,11.9167,Germany,DE,DEU,Bavaria,minor,56153.0,1276561363
7870,Emden,Emden,53.3667,7.2167,Germany,DE,DEU,Lower Saxony,minor,51526.0,1276309938
7888,Passau,Passau,48.567,13.4666,Germany,DE,DEU,Bavaria,minor,50560.0,1276123699
95,Johannesburg,Johannesburg,-26.17,28.03,South Africa,ZA,ZAF,Gauteng,admin,3435000.0,1710550792
104,Cape Town,Cape Town,-33.92,18.435,South Africa,ZA,ZAF,Western Cape,primary,3215000.0,1710680650
118,Benoni,Benoni,-26.1496,28.3299,South Africa,ZA,ZAF,Gauteng,,2986000.0,1710880986
140,Durban,Durban,-29.865,30.98,South Africa,ZA,ZAF,KwaZulu-Natal,,2729000.0,1710149138
358,Pretoria,Pretoria,-25.7069,28.2294,South Africa,ZA,ZAF,Gauteng,primary,1338000.0,1710176249
456,Vereeniging,Vereeniging,-26.6496,27.96,South Africa,ZA,ZAF,Gauteng,,1074000.0,1710271883
481,Port Elizabeth,Port Elizabeth,-33.97,25.6,South Africa,ZA,ZAF,Eastern Cape,,1021000.0,1710918997
531,Bloemfontein,Bloemfontein,-29.12,26.2299,South Africa,ZA,ZAF,Free State,primary,463064.0,1710495933
797,Pietermaritzburg,Pietermaritzburg,-29.61,30.39,South Africa,ZA,ZAF,KwaZulu-Natal,admin,750845.0,1710690280
1180,Welkom,Welkom,-27.97,26.73,South Africa,ZA,ZAF,Free State,,431944.0,1710480365
1416,East London,East London,-32.97,27.87,South Africa,ZA,ZAF,Eastern Cape,,338627.0,1710178149
1686,Thohoyandou,Thohoyandou,-22.95,30.48,South Africa,ZA,ZAF,Limpopo,,269707.0,1710219075
1862,Springs,Springs,-26.2696,28.43,South Africa,ZA,ZAF,Gauteng,,236083.0,1710058382
1918,Uitenhage,Uitenhage,-33.7596,25.39,South Africa,ZA,ZAF,Eastern Cape,,228912.0,1710276157
1972,Polokwane,Polokwane,-23.89,29.45,South Africa,ZA,ZAF,Limpopo,admin,220045.0,1710908010
2191,Paarl,Paarl,-33.6996,18.96,South Africa,ZA,ZAF,Western Cape,,187865.0,1710440011
2270,Klerksdorp,Klerksdorp,-26.88,26.62,South Africa,ZA,ZAF,North West,,178921.0,1710416691
2316,George,George,-33.95,22.45,South Africa,ZA,ZAF,Western Cape,,174582.0,1710164136
2393,Rustenburg,Rustenburg,-25.65,27.24,South Africa,ZA,ZAF,North West,,165976.0,1710326039
2401,Kimberley,Kimberley,-28.7468,24.77,South Africa,ZA,ZAF,Northern Cape,admin,165264.0,1710282622
2436,Bhisho,Bhisho,-32.87,27.39,South Africa,ZA,ZAF,Eastern Cape,admin,160997.0,1710672530
2515,Middelburg,Middelburg,-25.7596,29.47,South Africa,ZA,ZAF,Mpumalanga,,154706.0,1710495632
2573,Vryheid,Vryheid,-27.76,30.79,South Africa,ZA,ZAF,KwaZulu-Natal,,150012.0,1710716158
2724,Umtata,Umtata,-31.58,28.79,South Africa,ZA,ZAF,Eastern Cape,,137772.0,1710651314
2838,Worcester,Worcester,-33.64,19.4399,South Africa,ZA,ZAF,Western Cape,,127597.0,1710498245
2896,Potchefstroom,Potchefstroom,-26.6996,27.1,South Africa,ZA,ZAF,North West,,123669.0,1710838885
2907,Brits,Brits,-25.6296,27.78,South Africa,ZA,ZAF,North West,,122497.0,1710468143
3172,Queenstown,Queenstown,-31.8996,26.88,South Africa,ZA,ZAF,Eastern Cape,,105309.0,1710110028
3193,Mmabatho,Mmabatho,-25.83,25.61,South Africa,ZA,ZAF,North West,,104428.0,1710524815
3203,Kroonstad,Kroonstad,-27.66,27.21,South Africa,ZA,ZAF,Free State,,103992.0,1710508288
3233,Bethal,Bethal,-26.4696,29.45,South Africa,ZA,ZAF,Mpumalanga,,101919.0,1710328253
3575,Upington,Upington,-28.46,21.23,South Africa,ZA,ZAF,Northern Cape,,71373.0,1710210449
3694,Graaff-Reinet,Graaff-Reinet,-32.3,24.54,South Africa,ZA,ZAF,Eastern Cape,,62896.0,1710616617
3920,Vryburg,Vryburg,-26.96,24.73,South Africa,ZA,ZAF,North West,,49588.0,1710969597
4277,Cradock,Cradock,-32.1995,25.61,South Africa,ZA,ZAF,Eastern Cape,,32898.0,1710933404
5744,Mahikeng,Mahikeng,-25.8652,25.6442,South Africa,ZA,ZAF,North West,admin,,1710965423
6079,Nelspruit,Nelspruit,-25.4745,30.9703,South Africa,ZA,ZAF,Mpumalanga,admin,,1710114438
7118,Grahamstown,Grahamstown,-33.2996,26.52,South Africa,ZA,ZAF,Eastern Cape,,91548.0,1710671857
7216,Bethlehem,Bethlehem,-28.2196,28.3,South Africa,ZA,ZAF,Free State,,83654.0,1710750307
7309,Oudtshoorn,Oudtshoorn,-33.58,22.19,South Africa,ZA,ZAF,Western Cape,,76708.0,1710502855
7354,Standerton,Standerton,-26.9395,29.24,South Africa,ZA,ZAF,Mpumalanga,,74021.0,1710222465
7466,Saldanha,Saldanha,-33.01,17.93,South Africa,ZA,ZAF,Western Cape,,68284.0,1710078862
7488,Tzaneen,Tzaneen,-23.8195,30.17,South Africa,ZA,ZAF,Limpopo,,67245.0,1710120942
7581,Knysna,Knysna,-34.0329,23.0333,South Africa,ZA,ZAF,Western Cape,,63106.0,1710311704
7841,Port Shepstone,Port Shepstone,-30.7195,30.46,South Africa,ZA,ZAF,KwaZulu-Natal,,52793.0,1710443227
8005,Ladysmith,Ladysmith,-28.5495,29.78,South Africa,ZA,ZAF,KwaZulu-Natal,,47375.0,1710998347
8096,Beaufort West,Beaufort West,-32.3496,22.57,South Africa,ZA,ZAF,Western Cape,,44737.0,1710940488
8107,Aliwal North,Aliwal North,-30.6896,26.71,South Africa,ZA,ZAF,Eastern Cape,,44436.0,1710445896
8149,Volksrust,Volksrust,-27.3596,29.89,South Africa,ZA,ZAF,Mpumalanga,,43378.0,1710664906
8620,Lebowakgomo,Lebowakgomo,-24.1996,29.5,South Africa,ZA,ZAF,Limpopo,,33308.0,1710999076
8673,De Aar,De Aar,-30.65,24.0,South Africa,ZA,ZAF,Northern Cape,,32318.0,1710551900
9242,Hermanus,Hermanus,-34.4096,19.2299,South Africa,ZA,ZAF,Western Cape,,25153.0,1710409701
9745,Ulundi,Ulundi,-28.3296,31.41,South Africa,ZA,ZAF,KwaZulu-Natal,,20753.0,1710823263
9782,Komatipoort,Komatipoort,-25.4096,31.94,South Africa,ZA,ZAF,Mpumalanga,,20508.0,1710137353
9837,Musina,Musina,-22.34,30.03,South Africa,ZA,ZAF,Limpopo,,20191.0,1710956370
10130,Middelburg,Middelburg,-31.5,25.01,South Africa,ZA,ZAF,Eastern Cape,,18164.0,1710010705
10156,Port Alfred,Port Alfred,-33.5995,26.88,South Africa,ZA,ZAF,Eastern Cape,,17959.0,1710920478
10280,Bloemhof,Bloemhof,-27.6496,25.59,South Africa,ZA,ZAF,North West,,17122.0,1710321800
10341,Mossel Bay,Mossel Bay,-34.17,22.13,South Africa,ZA,ZAF,Western Cape,,16743.0,1710597106
10678,Bredasdorp,Bredasdorp,-34.5295,20.03,South Africa,ZA,ZAF,Western Cape,,14936.0,1710282172
10947,Swellendam,Swellendam,-34.0196,20.43,South Africa,ZA,ZAF,Western Cape,,13674.0,1710416218
11262,Colesberg,Colesberg,-30.7195,25.1,South Africa,ZA,ZAF,Northern Cape,,12423.0,1710885210
11339,Brandfort,Brandfort,-28.6996,26.47,South Africa,ZA,ZAF,Free State,,12091.0,1710953731
11627,Prieska,Prieska,-29.6595,22.73,South Africa,ZA,ZAF,Northern Cape,,11236.0,1710649877
11860,Springbok,Springbok,-29.6667,17.8833,South Africa,ZA,ZAF,Northern Cape,,10438.0,1710894218
12007,Kuruman,Kuruman,-27.4496,23.42,South Africa,ZA,ZAF,Northern Cape,,10006.0,1710332978
13669,Port Saint John’s,Port Saint John's,-31.6279,29.5283,South Africa,ZA,ZAF,Eastern Cape,,5939.0,1710506018
13761,Carnarvon,Carnarvon,-30.9496,22.1333,South Africa,ZA,ZAF,Northern Cape,,5785.0,1710331786
14237,Pofadder,Pofadder,-29.1329,19.3834,South Africa,ZA,ZAF,Northern Cape,,4220.0,1710817164
14254,Vanrhynsdorp,Vanrhynsdorp,-31.6166,18.7333,South Africa,ZA,ZAF,Western Cape,,3331.0,1710187274
14325,Alexander Bay,Alexander Bay,-28.6083,16.5033,South Africa,ZA,ZAF,Northern Cape,,1500.0,1710616152
15297,Ubombo,Ubombo,-27.5661,32.0833,South Africa,ZA,ZAF,KwaZulu-Natal,,564.0,1710203500
66,Riyadh,Riyadh,24.6408,46.7727,Saudi Arabia,SA,SAU,Ar Riyāḑ,primary,4465000.0,1682999334
115,Jeddah,Jeddah,21.5169,39.2192,Saudi Arabia,SA,SAU,Makkah al Mukarramah,,3012000.0,1682926944
206,Ad Dammām,Ad Dammam,26.4282,50.0997,Saudi Arabia,SA,SAU,Ash Sharqīyah,admin,2054710.0,1682452296
347,Mecca,Mecca,21.43,39.82,Saudi Arabia,SA,SAU,Makkah al Mukarramah,admin,1385000.0,1682169241
490,Medina,Medina,24.5,39.58,Saudi Arabia,SA,SAU,Al Madīnah al Munawwarah,admin,1010000.0,1682345785
864,Aţ Ţā’if,At Ta'if,21.2622,40.3823,Saudi Arabia,SA,SAU,Makkah al Mukarramah,,657282.0,1682956102
882,Al Hufūf,Al Hufuf,25.3487,49.5856,Saudi Arabia,SA,SAU,Ash Sharqīyah,,637389.0,1682958157
928,Al Ḩillah,Al Hillah,23.4895,46.7564,Saudi Arabia,SA,SAU,Ar Riyāḑ,,594605.0,1682494753
984,Tabūk,Tabuk,28.3838,36.555,Saudi Arabia,SA,SAU,Tabūk,admin,547957.0,1682590992
1243,Buraydah,Buraydah,26.3664,43.9628,Saudi Arabia,SA,SAU,Al Qaşīm,admin,398581.0,1682470726
1282,Ḩā’il,Ha'il,27.5236,41.7001,Saudi Arabia,SA,SAU,Ḩā’il,admin,385257.0,1682249750
1321,Najrān,Najran,17.5065,44.1316,Saudi Arabia,SA,SAU,Najrān,admin,369609.0,1682069716
1323,Al Qaţīf,Al Qatif,26.5196,50.0115,Saudi Arabia,SA,SAU,Ash Sharqīyah,,368892.0,1682001245
1573,Al Mubarraz,Al Mubarraz,25.4291,49.5659,Saudi Arabia,SA,SAU,Ash Sharqīyah,,298562.0,1682484039
1574,Al Kharj,Al Kharj,24.1556,47.312,Saudi Arabia,SA,SAU,Ar Riyāḑ,,298428.0,1682947408
1692,Yanbu‘,Yanbu`,24.0943,38.0493,Saudi Arabia,SA,SAU,Al Madīnah al Munawwarah,,267590.0,1682000044
1792,Ḩafar al Bāţin,Hafar al Batin,28.4337,45.9601,Saudi Arabia,SA,SAU,Ash Sharqīyah,,249194.0,1682394909
1851,Al Jubayl,Al Jubayl,27.0046,49.646,Saudi Arabia,SA,SAU,Ash Sharqīyah,,237274.0,1682564079
1958,‘Ar‘ar,`Ar`ar,30.99,41.0207,Saudi Arabia,SA,SAU,Al Ḩudūd ash Shamālīyah,admin,222016.0,1682664517
2017,Abhā,Abha,18.2301,42.5001,Saudi Arabia,SA,SAU,‘Asīr,admin,210886.0,1682759151
2826,Sakākā,Sakaka,30.0,40.1333,Saudi Arabia,SA,SAU,Al Jawf,admin,128332.0,1682232132
3177,Jāzān,Jazan,16.9066,42.5566,Saudi Arabia,SA,SAU,Jāzān,admin,105198.0,1682515652
6005,Al Bāḩah,Al Bahah,20.0129,41.4677,Saudi Arabia,SA,SAU,Al Bāḩah,admin,,1682121855
7054,Dhahran,Dhahran,26.2914,50.1583,Saudi Arabia,SA,SAU,Ash Sharqīyah,,97446.0,1682374155
7162,Qal‘at Bīshah,Qal`at Bishah,20.0087,42.5987,Saudi Arabia,SA,SAU,,,88291.0,1682202412
7545,Rafḩā,Rafha,29.6202,43.4948,Saudi Arabia,SA,SAU,Al Ḩudūd ash Shamālīyah,,64755.0,1682612877
8154,Al Wajh,Al Wajh,26.2324,36.4636,Saudi Arabia,SA,SAU,Tabūk,,43237.0,1682508460
9359,As Sulayyil,As Sulayyil,20.4623,45.5722,Saudi Arabia,SA,SAU,Ar Riyāḑ,,24097.0,1682960661
9523,Dawmat al Jandal,Dawmat al Jandal,29.8153,39.8664,Saudi Arabia,SA,SAU,Al Jawf,,22583.0,1682116359
14370,Al Qurayyāt,Al Qurayyat,31.3333,37.3333,Saudi Arabia,SA,SAU,Al Jawf,,10000.0,1682805250
14479,Al Quway‘īyah,Al Quway`iyah,24.0737,45.2806,Saudi Arabia,SA,SAU,Ar Riyāḑ,,8712.0,1682154232
15397,Al Qunfudhah,Al Qunfudhah,19.1264,41.0789,Saudi Arabia,SA,SAU,,,157.0,1682434353
62,Sydney,Sydney,-33.92,151.1852,Australia,AU,AUS,New South Wales,admin,4630000.0,1036074917
69,Melbourne,Melbourne,-37.82,144.975,Australia,AU,AUS,Victoria,admin,4170000.0,1036533631
228,Brisbane,Brisbane,-27.455,153.0351,Australia,AU,AUS,Queensland,admin,1860000.0,1036192929
294,Perth,Perth,-31.955,115.84,Australia,AU,AUS,Western Australia,admin,1532000.0,1036178956
415,Adelaide,Adelaide,-34.935,138.6,Australia,AU,AUS,South Australia,admin,1145000.0,1036538171
422,Newcastle,Newcastle,-32.8453,151.815,Australia,AU,AUS,New South Wales,,1134616.0,1036468001
540,Canberra,Canberra,-35.283,149.129,Australia,AU,AUS,Australian Capital Territory,primary,327700.0,1036142029
1013,Gold Coast,Gold Coast,-28.0815,153.4482,Australia,AU,AUS,Queensland,,527660.0,1036153217
1118,Cranbourne,Cranbourne,-38.0996,145.2834,Australia,AU,AUS,Victoria,,460491.0,1036639986
1724,Wollongong,Wollongong,-34.4154,150.89,Australia,AU,AUS,New South Wales,,260914.0,1036502269
2437,Geelong,Geelong,-38.1675,144.3956,Australia,AU,AUS,Victoria,,160991.0,1036870987
2521,Cairns,Cairns,-16.8878,145.7633,Australia,AU,AUS,Queensland,,154225.0,1036016939
2718,Townsville,Townsville,-19.25,146.77,Australia,AU,AUS,Queensland,,138954.0,1036500020
3198,Albury,Albury,-36.06,146.92,Australia,AU,AUS,New South Wales,,104258.0,1036076542
3343,Darwin,Darwin,-12.4254,130.85,Australia,AU,AUS,Northern Territory,admin,93080.0,1036497565
3474,Hobart,Hobart,-42.85,147.295,Australia,AU,AUS,Tasmania,admin,80870.0,1036679838
4133,Caloundra,Caloundra,-26.8,153.1333,Australia,AU,AUS,Queensland,,38706.0,1036266942
7075,Nowra,Nowra,-34.8828,150.6,Australia,AU,AUS,New South Wales,,94781.0,1036984536
7095,Toowoomba,Toowoomba,-27.5645,151.9555,Australia,AU,AUS,Queensland,,92800.0,1036765315
7198,Ballarat,Ballarat,-37.5596,143.84,Australia,AU,AUS,Victoria,,85109.0,1036567186
7236,Bendigo,Bendigo,-36.76,144.28,Australia,AU,AUS,Victoria,,81657.0,1036537913
7324,Mackay,Mackay,-21.1439,149.15,Australia,AU,AUS,Queensland,,75922.0,1036507374
7365,Mandurah,Mandurah,-32.5235,115.7471,Australia,AU,AUS,Western Australia,,73356.0,1036773118
7385,Launceston,Launceston,-41.4498,147.1302,Australia,AU,AUS,Tasmania,,72458.0,1036170383
7520,Rockhampton,Rockhampton,-23.3639,150.52,Australia,AU,AUS,Queensland,,65850.0,1036768986
7585,Coffs Harbour,Coffs Harbour,-30.3071,153.1123,Australia,AU,AUS,New South Wales,,62978.0,1036320442
7758,Wagga Wagga,Wagga Wagga,-35.1222,147.34,Australia,AU,AUS,New South Wales,,55381.0,1036273188
7851,Bundaberg,Bundaberg,-24.8791,152.3509,Australia,AU,AUS,Queensland,,52472.0,1036377333
7969,Port Macquarie,Port Macquarie,-31.445,152.9187,Australia,AU,AUS,New South Wales,,48547.0,1036051032
7985,Mildura,Mildura,-34.185,142.1514,Australia,AU,AUS,Victoria,,47867.0,1036624348
8119,Taree,Taree,-31.8976,152.4618,Australia,AU,AUS,New South Wales,,44182.0,1036855717
8312,Orange,Orange,-33.28,149.1,Australia,AU,AUS,New South Wales,,39329.0,1036760396
8350,Tamworth,Tamworth,-31.1026,150.9171,Australia,AU,AUS,New South Wales,,38551.0,1036233388
8415,Kalgoorlie,Kalgoorlie,-30.7354,121.46,Australia,AU,AUS,Western Australia,,36852.0,1036087904
8604,Shepparton,Shepparton,-36.3746,145.3914,Australia,AU,AUS,Victoria,,33550.0,1036030548
8632,Mount Isa,Mount Isa,-20.7239,139.49,Australia,AU,AUS,Queensland,,33200.0,1036386100
8636,Tweed Heads,Tweed Heads,-28.1826,153.5466,Australia,AU,AUS,New South Wales,,33065.0,1036571941
8662,Queanbeyan,Queanbeyan,-35.3546,149.2113,Australia,AU,AUS,New South Wales,,32602.0,1036846465
8671,Melton,Melton,-37.6895,144.57,Australia,AU,AUS,Victoria,,32368.0,1036007778
8708,Dubbo,Dubbo,-32.26,148.5973,Australia,AU,AUS,New South Wales,,31574.0,1036855042
8712,Caboolture,Caboolture,-27.083,152.95,Australia,AU,AUS,Queensland,,31513.0,1036273434
8716,Lismore,Lismore,-28.8167,153.2931,Australia,AU,AUS,New South Wales,,31430.0,1036024174
8792,Gladstone,Gladstone,-23.8533,151.2467,Australia,AU,AUS,Queensland,,30489.0,1036070755
8831,Warrnambool,Warrnambool,-38.38,142.47,Australia,AU,AUS,Victoria,,29928.0,1036291219
8834,Sunbury,Sunbury,-37.5696,144.71,Australia,AU,AUS,Victoria,,29925.0,1036519781
8993,Alice Springs,Alice Springs,-23.701,133.88,Australia,AU,AUS,Northern Territory,,27710.0,1036830397
9030,Geraldton,Geraldton,-28.7666,114.6,Australia,AU,AUS,Western Australia,,27258.0,1036811875
9063,Bunbury,Bunbury,-33.3443,115.6502,Australia,AU,AUS,Western Australia,,26998.0,1036561011
9124,Albany,Albany,-35.0169,117.8916,Australia,AU,AUS,Western Australia,,26445.0,1036047365
9247,Hervey Bay,Hervey Bay,-25.2887,152.8409,Australia,AU,AUS,Queensland,,25114.0,1036833938
9440,Mount Gambier,Mount Gambier,-37.8313,140.765,Australia,AU,AUS,South Australia,,23209.0,1036932780
9514,Armidale,Armidale,-30.5123,151.6675,Australia,AU,AUS,New South Wales,,22673.0,1036975829
9530,Whyalla,Whyalla,-33.025,137.5614,Australia,AU,AUS,South Australia,,22559.0,1036961366
9538,Sale,Sale,-38.1096,147.06,Australia,AU,AUS,Victoria,,22486.0,1036960753
9580,Katoomba,Katoomba,-33.7069,150.32,Australia,AU,AUS,New South Wales,,22076.0,1036674004
9717,Goulburn,Goulburn,-34.7496,149.7102,Australia,AU,AUS,New South Wales,,20940.0,1036347537
9755,Maryborough,Maryborough,-25.5491,152.7209,Australia,AU,AUS,Queensland,,20678.0,1036205623
9845,Kwinana,Kwinana,-32.2394,115.7702,Australia,AU,AUS,Western Australia,,20086.0,1036753478
9871,Burnie,Burnie,-41.0666,145.9167,Australia,AU,AUS,Tasmania,,19972.0,1036394657
9951,Echuca,Echuca,-36.1296,144.75,Australia,AU,AUS,Victoria,,19457.0,1036292989
9966,Devonport,Devonport,-41.1927,146.3311,Australia,AU,AUS,Tasmania,,19317.0,1036033175
9973,Roebourne,Roebourne,-20.7829,117.1333,Australia,AU,AUS,Western Australia,,19260.0,1036752479
10065,Maitland,Maitland,-32.721,151.555,Australia,AU,AUS,New South Wales,,18625.0,1036034945
10124,Traralgon,Traralgon,-38.1996,146.53,Australia,AU,AUS,Victoria,,18226.0,1036938861
10127,Murray Bridge,Murray Bridge,-35.1296,139.26,Australia,AU,AUS,South Australia,,18194.0,1036345943
10215,Tuncurry,Tuncurry,-32.1931,152.5266,Australia,AU,AUS,New South Wales,,17591.0,1036846186
10248,Broken Hill,Broken Hill,-31.95,141.4331,Australia,AU,AUS,New South Wales,,17395.0,1036216956
10330,Karratha,Karratha,-20.7304,116.87,Australia,AU,AUS,Western Australia,,16796.0,1036951388
10409,Gawler,Gawler,-34.6074,138.7264,Australia,AU,AUS,South Australia,,16362.0,1036309493
10583,Griffith,Griffith,-34.29,146.04,Australia,AU,AUS,New South Wales,,15455.0,1036563313
10786,Kingston,Kingston,-42.9911,147.3084,Australia,AU,AUS,Tasmania,,14371.0,1036297213
10810,Port Hedland,Port Hedland,-20.3104,118.606,Australia,AU,AUS,Western Australia,,14288.0,1036509606
10815,Ballina,Ballina,-28.8614,153.568,Australia,AU,AUS,New South Wales,,14242.0,1036040102
10858,Wangaratta,Wangaratta,-36.36,146.3,Australia,AU,AUS,Victoria,,14022.0,1036395326
10889,Port Augusta,Port Augusta,-32.49,137.77,Australia,AU,AUS,South Australia,,13897.0,1036945368
10898,Richmond,Richmond,-33.5995,150.74,Australia,AU,AUS,New South Wales,,13880.0,1036934091
10914,Singleton,Singleton,-32.5695,151.16,Australia,AU,AUS,New South Wales,,13813.0,1036947514
10952,Bongaree,Bongaree,-27.0787,153.1509,Australia,AU,AUS,Queensland,,13649.0,1036269345
10955,Port Lincoln,Port Lincoln,-34.7332,135.8666,Australia,AU,AUS,South Australia,,13630.0,1036558150
11058,Broome,Broome,-17.9618,122.2308,Australia,AU,AUS,Western Australia,,13218.0,1036047905
11155,Horsham,Horsham,-36.7096,142.19,Australia,AU,AUS,Victoria,,12830.0,1036654340
11233,Port Pirie,Port Pirie,-33.1911,137.99,Australia,AU,AUS,South Australia,,12506.0,1036571606
11281,Warwick,Warwick,-28.2292,152.0203,Australia,AU,AUS,Queensland,,12347.0,1036412726
11424,Kempsey,Kempsey,-31.0874,152.822,Australia,AU,AUS,New South Wales,,11840.0,1036897003
11433,Portland,Portland,-38.34,141.59,Australia,AU,AUS,Victoria,,11808.0,1036439594
11486,Gympie,Gympie,-26.1886,152.6709,Australia,AU,AUS,Queensland,,11649.0,1036391013
11500,Muswellbrook,Muswellbrook,-32.2696,150.89,Australia,AU,AUS,New South Wales,,11630.0,1036253543
11672,Parkes,Parkes,-33.1296,148.17,Australia,AU,AUS,New South Wales,,11137.0,1036977270
11674,Lithgow,Lithgow,-33.4961,150.1528,Australia,AU,AUS,New South Wales,,11128.0,1036591538
11697,Bairnsdale,Bairnsdale,-37.8296,147.61,Australia,AU,AUS,Victoria,,11005.0,1036432237
11701,Bowen,Bowen,-20.0013,148.2087,Australia,AU,AUS,Queensland,,10983.0,1036979225
11757,Yeppoon,Yeppoon,-23.1329,150.7567,Australia,AU,AUS,Queensland,,10769.0,1036180170
11823,Batemans Bay,Batemans Bay,-35.6896,150.2073,Australia,AU,AUS,New South Wales,,10557.0,1036272805
11887,Kiama,Kiama,-34.7096,150.84,Australia,AU,AUS,New South Wales,,10379.0,1036754695
11945,Busselton,Busselton,-33.6564,115.3487,Australia,AU,AUS,Western Australia,,10214.0,1036911902
11962,Innisfail,Innisfail,-17.5313,146.0387,Australia,AU,AUS,Queensland,,10143.0,1036930229
11963,Katherine,Katherine,-14.4666,132.2666,Australia,AU,AUS,Northern Territory,,10141.0,1036323110
12010,Moranbah,Moranbah,-22.0016,148.038,Australia,AU,AUS,Queensland,,10000.0,1036916453
12023,Grafton,Grafton,-29.712,152.9377,Australia,AU,AUS,New South Wales,,9955.0,1036615468
12050,Dalby,Dalby,-27.1939,151.2657,Australia,AU,AUS,Queensland,,9847.0,1036053707
12128,Charters Towers,Charters Towers,-20.0809,146.2587,Australia,AU,AUS,Queensland,,9573.0,1036733088
12189,Emerald,Emerald,-23.5122,148.1673,Australia,AU,AUS,Queensland,,9398.0,1036124660
12227,Swan Hill,Swan Hill,-35.3396,143.54,Australia,AU,AUS,Victoria,,9276.0,1036220501
12234,Ulladulla,Ulladulla,-35.3495,150.47,Australia,AU,AUS,New South Wales,,9250.0,1036687220
12296,Colac,Colac,-38.3395,143.58,Australia,AU,AUS,Victoria,,9089.0,1036633113
12298,Ayr,Ayr,-19.5702,147.3995,Australia,AU,AUS,Queensland,,9078.0,1036228772
12383,Hamilton,Hamilton,-37.7312,142.0234,Australia,AU,AUS,Victoria,,8869.0,1036699883
12492,Kingaroy,Kingaroy,-26.539,151.8406,Australia,AU,AUS,Queensland,,8573.0,1036463308
12498,Inverell,Inverell,-29.7668,151.1126,Australia,AU,AUS,New South Wales,,8561.0,1036652902
12641,Moree,Moree,-29.4699,149.8301,Australia,AU,AUS,New South Wales,,8203.0,1036377829
12710,Deniliquin,Deniliquin,-35.5296,144.95,Australia,AU,AUS,New South Wales,,8024.0,1036325219
12769,Esperance,Esperance,-33.8573,121.8889,Australia,AU,AUS,Western Australia,,7888.0,1036299314
12814,Victor Harbor,Victor Harbor,-35.5596,138.6173,Australia,AU,AUS,South Australia,,7760.0,1036536547
12926,Young,Young,-34.3096,148.29,Australia,AU,AUS,New South Wales,,7501.0,1036073044
12979,Carnarvon,Carnarvon,-24.8998,113.6501,Australia,AU,AUS,Western Australia,,7392.0,1036344209
13023,Leeton,Leeton,-34.5449,146.3973,Australia,AU,AUS,New South Wales,,7299.0,1036102538
13086,Gunnedah,Gunnedah,-30.987,150.2623,Australia,AU,AUS,New South Wales,,7148.0,1036500021
13122,Narrabri,Narrabri,-30.3319,149.7874,Australia,AU,AUS,New South Wales,,7082.0,1036714493
13137,Maryborough,Maryborough,-37.0496,143.73,Australia,AU,AUS,Victoria,,7046.0,1036781601
13159,Stawell,Stawell,-37.0596,142.76,Australia,AU,AUS,Victoria,,6991.0,1036073093
13174,Atherton,Atherton,-17.2703,145.4694,Australia,AU,AUS,Queensland,,6959.0,1036456869
13239,Cowra,Cowra,-33.8296,148.68,Australia,AU,AUS,New South Wales,,6795.0,1036204877
13256,Byron Bay,Byron Bay,-28.6565,153.6129,Australia,AU,AUS,New South Wales,,6764.0,1036606974
13384,Tumut,Tumut,-35.3096,148.22,Australia,AU,AUS,New South Wales,,6526.0,1036777587
13388,Cooma,Cooma,-36.2396,149.12,Australia,AU,AUS,New South Wales,,6520.0,1036070931
13453,Merimbula,Merimbula,-36.8996,149.9,Australia,AU,AUS,New South Wales,,6367.0,1036933197
13490,Biloela,Biloela,-24.3936,150.4961,Australia,AU,AUS,Queensland,,6309.0,1036014905
13579,Ingham,Ingham,-18.6496,146.1666,Australia,AU,AUS,Queensland,,6127.0,1036238542
13587,Bathurst,Bathurst,-33.4196,149.57,Australia,AU,AUS,New South Wales,,6111.0,1036446465
13588,Ararat,Ararat,-37.2795,142.91,Australia,AU,AUS,Victoria,,6110.0,1036674088
13648,Wonthaggi,Wonthaggi,-38.6095,145.59,Australia,AU,AUS,Victoria,,5985.0,1036415078
13720,Northam,Northam,-31.6566,116.6534,Australia,AU,AUS,Western Australia,,5855.0,1036868267
13811,Kununurra,Kununurra,-15.7666,128.7333,Australia,AU,AUS,Western Australia,,5679.0,1036556231
13903,Roma,Roma,-26.5594,148.7907,Australia,AU,AUS,Queensland,,5496.0,1036698836
13970,Mudgee,Mudgee,-32.5896,149.5801,Australia,AU,AUS,New South Wales,,5391.0,1036213564
14218,Forbes,Forbes,-33.3896,148.02,Australia,AU,AUS,New South Wales,,4838.0,1036523834
14220,Berri,Berri,-34.2829,140.6,Australia,AU,AUS,South Australia,,4716.0,1036554717
14221,Cobram,Cobram,-35.9196,145.65,Australia,AU,AUS,Victoria,,4659.0,1036438159
14222,Scone,Scone,-32.0796,150.8501,Australia,AU,AUS,New South Wales,,4624.0,1036918224
14234,Goondiwindi,Goondiwindi,-28.5548,150.3253,Australia,AU,AUS,Queensland,,4251.0,1036452066
14235,Manjimup,Manjimup,-34.2333,116.15,Australia,AU,AUS,Western Australia,,4240.0,1036022434
14236,Narrogin,Narrogin,-32.9329,117.1666,Australia,AU,AUS,Western Australia,,4238.0,1036221961
14238,Smithton,Smithton,-40.8329,145.1167,Australia,AU,AUS,Tasmania,,4202.0,1036207188
14244,Proserpine,Proserpine,-20.4162,148.5835,Australia,AU,AUS,Queensland,,3976.0,1036150859
14245,Katanning,Katanning,-33.6996,117.5501,Australia,AU,AUS,Western Australia,,3934.0,1036411379
14251,Seymour,Seymour,-37.0342,145.1273,Australia,AU,AUS,Victoria,,3693.0,1036919223
14263,Clare,Clare,-33.8329,138.6,Australia,AU,AUS,South Australia,,3061.0,1036842122
14264,Central Coast,Central Coast,-33.42,151.3,Australia,AU,AUS,New South Wales,,3026.0,1036067845
14265,Port Douglas,Port Douglas,-16.4846,145.4587,Australia,AU,AUS,Queensland,,3000.0,1036053723
14270,Longreach,Longreach,-23.4496,144.25,Australia,AU,AUS,Queensland,,2894.0,1036622618
14273,Weipa,Weipa,-12.6666,141.8666,Australia,AU,AUS,Queensland,,2830.0,1036501067
14276,Wallaroo,Wallaroo,-33.9329,137.6333,Australia,AU,AUS,South Australia,,2779.0,1036743246
14279,Tom Price,Tom Price,-22.6935,117.7931,Australia,AU,AUS,Western Australia,,2723.0,1036464109
14284,Bordertown,Bordertown,-36.3162,140.7666,Australia,AU,AUS,South Australia,,2583.0,1036115980
14294,Bourke,Bourke,-30.1,145.9333,Australia,AU,AUS,New South Wales,,2475.0,1036074667
14296,Scottsdale,Scottsdale,-41.1495,147.5167,Australia,AU,AUS,Tasmania,,2468.0,1036807079
14299,Queenstown,Queenstown,-42.0829,145.55,Australia,AU,AUS,Tasmania,,2352.0,1036082142
14310,Charleville,Charleville,-26.4,146.25,Australia,AU,AUS,Queensland,,1900.0,1036575498
14313,Yamba,Yamba,-29.423,153.3533,Australia,AU,AUS,New South Wales,,1806.0,1036259324
14314,Tumby Bay,Tumby Bay,-34.3829,136.0833,Australia,AU,AUS,South Australia,,1791.0,1036529327
14315,Mount Barker,Mount Barker,-34.6328,117.6666,Australia,AU,AUS,Western Australia,,1781.0,1036651498
14318,Wagin,Wagin,-33.2996,117.35,Australia,AU,AUS,Western Australia,,1598.0,1036851354
14321,Kalbarri,Kalbarri,-27.6662,114.1667,Australia,AU,AUS,Western Australia,,1537.0,1036429141
14324,Penola,Penola,-37.383,140.8167,Australia,AU,AUS,South Australia,,1514.0,1036121853
14327,Ouyen,Ouyen,-35.0662,142.3167,Australia,AU,AUS,Victoria,,1400.0,1036764173
14334,Cloncurry,Cloncurry,-20.7,140.5,Australia,AU,AUS,Queensland,,1202.0,1036672657
14335,Oatlands,Oatlands,-42.2996,147.3666,Australia,AU,AUS,Tasmania,,1157.0,1036926323
14336,Ravensthorpe,Ravensthorpe,-33.5829,120.0333,Australia,AU,AUS,Western Australia,,1101.0,1036878618
14338,Barcaldine,Barcaldine,-23.5662,145.2834,Australia,AU,AUS,Queensland,,1068.0,1036284609
14339,Streaky Bay,Streaky Bay,-32.8119,134.2149,Australia,AU,AUS,South Australia,,1060.0,1036134944
14345,Wyndham,Wyndham,-15.374,128.3601,Australia,AU,AUS,Western Australia,,800.0,1036474435
14348,Meekatharra,Meekatharra,-26.6,118.4833,Australia,AU,AUS,Western Australia,,654.0,1036608457
14352,Quilpie,Quilpie,-26.6166,144.25,Australia,AU,AUS,Queensland,,560.0,1036696232
14356,Hughenden,Hughenden,-20.85,144.2,Australia,AU,AUS,Queensland,,421.0,1036738932
14360,Morawa,Morawa,-29.2163,116.0,Australia,AU,AUS,Western Australia,,259.0,1036194388
14362,Kingston South East,Kingston South East,-36.8328,139.8501,Australia,AU,AUS,South Australia,,206.0,1036261175
14364,Three Springs,Three Springs,-29.5333,115.75,Australia,AU,AUS,Western Australia,,190.0,1036669084
14995,Newman,Newman,-23.3666,119.7333,Australia,AU,AUS,Western Australia,,5138.0,1036587511
15020,McMinns Lagoon,McMinns Lagoon,-12.5329,131.05,Australia,AU,AUS,Northern Territory,,5025.0,1036673821
15121,Merredin,Merredin,-31.4828,118.2667,Australia,AU,AUS,Western Australia,,2668.0,1036578320
15182,Peterborough,Peterborough,-32.9662,138.8333,Australia,AU,AUS,South Australia,,1689.0,1036104272
15189,Ceduna,Ceduna,-32.0991,133.6623,Australia,AU,AUS,South Australia,,1586.0,1036725988
15196,Meningie,Meningie,-35.6995,139.3333,Australia,AU,AUS,South Australia,,1501.0,1036445634
15202,Gingin,Gingin,-31.3496,115.9,Australia,AU,AUS,Western Australia,,1446.0,1036686561
15225,Port Denison,Port Denison,-29.2828,114.9166,Australia,AU,AUS,Western Australia,,1213.0,1036873405
15227,Halls Creek,Halls Creek,-18.2667,127.7667,Australia,AU,AUS,Western Australia,,1209.0,1036444511
15233,Winton,Winton,-22.3996,143.0333,Australia,AU,AUS,Queensland,,1157.0,1036031036
15243,Exmouth,Exmouth,-21.9311,114.1233,Australia,AU,AUS,Western Australia,,1085.0,1036006022
15250,Norseman,Norseman,-32.2,121.7666,Australia,AU,AUS,Western Australia,,1004.0,1036257263
15257,Yulara,Yulara,-25.2405,130.9889,Australia,AU,AUS,Northern Territory,,930.0,1036245584
15265,Georgetown,Georgetown,-18.3,143.5333,Australia,AU,AUS,Queensland,,818.0,1036412066
15279,Pannawonica,Pannawonica,-21.6366,116.325,Australia,AU,AUS,Western Australia,,686.0,1036914573
15282,Pine Creek,Pine Creek,-13.8162,131.8167,Australia,AU,AUS,Northern Territory,,665.0,1036858004
15285,Kimba,Kimba,-33.1496,136.4334,Australia,AU,AUS,South Australia,,636.0,1036035341
15290,Boulia,Boulia,-22.8996,139.9,Australia,AU,AUS,Queensland,,600.0,1036512474
15294,Onslow,Onslow,-21.6576,115.0963,Australia,AU,AUS,Western Australia,,573.0,1036255184
15303,Cowell,Cowell,-33.6829,136.9166,Australia,AU,AUS,South Australia,,537.0,1036921929
15305,Andamooka,Andamooka,-30.431,137.1656,Australia,AU,AUS,South Australia,,528.0,1036260794
15319,Eidsvold,Eidsvold,-25.3662,151.1333,Australia,AU,AUS,Queensland,,459.0,1036235197
15322,Woomera,Woomera,-31.1496,136.8,Australia,AU,AUS,South Australia,,450.0,1036392822
15326,Wilcannia,Wilcannia,-31.5662,143.3833,Australia,AU,AUS,New South Wales,,442.0,1036134474
15329,Mount Magnet,Mount Magnet,-28.0662,117.8167,Australia,AU,AUS,Western Australia,,424.0,1036327720
15342,Laverton,Laverton,-28.627,122.404,Australia,AU,AUS,Western Australia,,316.0,1036624366
15351,Richmond,Richmond,-20.7163,143.1333,Australia,AU,AUS,Queensland,,296.0,1036156498
15357,Birdsville,Birdsville,-25.8996,139.3666,Australia,AU,AUS,Queensland,,283.0,1036830335
15363,Ivanhoe,Ivanhoe,-32.8996,144.3,Australia,AU,AUS,New South Wales,,265.0,1036571526
15368,Theodore,Theodore,-24.9495,150.0833,Australia,AU,AUS,Queensland,,246.0,1036423364
15371,Adelaide River,Adelaide River,-13.2495,131.1,Australia,AU,AUS,Northern Territory,,237.0,1036136750
15374,Leonora,Leonora,-28.8815,121.328,Australia,AU,AUS,Western Australia,,227.0,1036140404
15377,Thargomindah,Thargomindah,-28.0,143.8167,Australia,AU,AUS,Queensland,,203.0,1036793708
15379,Burketown,Burketown,-17.7161,139.5666,Australia,AU,AUS,Queensland,,200.0,1036956849
15385,Southern Cross,Southern Cross,-31.2161,119.3167,Australia,AU,AUS,Western Australia,,187.0,1036931490
15386,Camooweal,Camooweal,-19.9167,138.1167,Australia,AU,AUS,Queensland,,187.0,1036815011
15388,Bicheno,Bicheno,-41.8784,148.2886,Australia,AU,AUS,Tasmania,,177.0,1036189642
15394,Karumba,Karumba,-17.4833,140.8334,Australia,AU,AUS,Queensland,,173.0,1036926106
15396,Windorah,Windorah,-25.4332,142.6502,Australia,AU,AUS,Queensland,,158.0,1036272226
15404,Bedourie,Bedourie,-24.3496,139.4666,Australia,AU,AUS,Queensland,,142.0,1036680924
15439,Kingoonya,Kingoonya,-30.8996,135.3,Australia,AU,AUS,South Australia,,50.0,1036942792
53,Singapore,Singapore,1.293,103.8558,Singapore,SG,SGP,,primary,5183700.0,1702341327
52,Toronto,Toronto,43.7,-79.42,Canada,CA,CAN,Ontario,admin,5213000.0,1124279679
84,Montréal,Montreal,45.5,-73.5833,Canada,CA,CAN,Québec,,3678000.0,1124586170
176,Vancouver,Vancouver,49.2734,-123.1216,Canada,CA,CAN,British Columbia,,2313328.0,1124825478
414,Ottawa,Ottawa,45.4167,-75.7,Canada,CA,CAN,Ontario,primary,1145000.0,1124399363
432,Calgary,Calgary,51.083,-114.08,Canada,CA,CAN,Alberta,,1110000.0,1124690423
464,Edmonton,Edmonton,53.55,-113.5,Canada,CA,CAN,Alberta,admin,1058000.0,1124290735
821,Hamilton,Hamilton,43.25,-79.83,Canada,CA,CAN,Ontario,,721053.0,1124567288
885,Winnipeg,Winnipeg,49.883,-97.166,Canada,CA,CAN,Manitoba,admin,632063.0,1124224963
891,Québec,Quebec,46.84,-71.2456,Canada,CA,CAN,Québec,admin,624177.0,1124823933
1135,Oshawa,Oshawa,43.88,-78.85,Canada,CA,CAN,Ontario,,450963.0,1124541904
1201,Kitchener,Kitchener,43.45,-80.5,Canada,CA,CAN,Ontario,,417001.0,1124158530
1343,Halifax,Halifax,44.65,-63.6,Canada,CA,CAN,Nova Scotia,admin,359111.0,1124130981
1388,London,London,42.97,-81.25,Canada,CA,CAN,Ontario,,346765.0,1124469960
1484,Windsor,Windsor,42.3333,-83.0333,Canada,CA,CAN,Ontario,,319246.0,1124261024
1604,Victoria,Victoria,48.4333,-123.35,Canada,CA,CAN,British Columbia,admin,289625.0,1124147219
2114,Saskatoon,Saskatoon,52.17,-106.67,Canada,CA,CAN,Saskatchewan,,198958.0,1124612546
2240,Barrie,Barrie,44.3838,-79.7,Canada,CA,CAN,Ontario,,182041.0,1124340223
2298,Regina,Regina,50.45,-104.617,Canada,CA,CAN,Saskatchewan,admin,176183.0,1124342541
2475,Sudbury,Sudbury,46.5,-80.9666,Canada,CA,CAN,Ontario,,157857.0,1124539524
2558,Abbotsford,Abbotsford,49.0504,-122.3,Canada,CA,CAN,British Columbia,,151683.0,1124808029
2655,Sarnia,Sarnia,42.9666,-82.4,Canada,CA,CAN,Ontario,,144172.0,1124509835
2712,Sherbrooke,Sherbrooke,45.4,-71.9,Canada,CA,CAN,Québec,,139652.0,1124559506
2784,Saint John’s,Saint John's,47.585,-52.681,Canada,CA,CAN,Newfoundland and Labrador,admin,131469.0,1124741456
2877,Kelowna,Kelowna,49.9,-119.4833,Canada,CA,CAN,British Columbia,,125109.0,1124080626
2930,Trois-Rivières,Trois-Rivieres,46.35,-72.5499,Canada,CA,CAN,Québec,,119693.0,1124407487
3014,Kingston,Kingston,44.2337,-76.4833,Canada,CA,CAN,Ontario,,114195.0,1124437097
3367,Moncton,Moncton,46.0833,-64.7667,Canada,CA,CAN,New Brunswick,,90635.0,1124521303
3436,Peterborough,Peterborough,44.3,-78.3333,Canada,CA,CAN,Ontario,,83627.0,1124440356
3749,Drummondville,Drummondville,45.8833,-72.4834,Canada,CA,CAN,Québec,,59489.0,1124624283
3877,Fredericton,Fredericton,45.95,-66.6333,Canada,CA,CAN,New Brunswick,admin,52337.0,1124061289
3883,Chilliwack,Chilliwack,49.1666,-121.95,Canada,CA,CAN,British Columbia,,51942.0,1124531262
3928,Shawinigan,Shawinigan,46.5504,-72.7333,Canada,CA,CAN,Québec,,49161.0,1124441118
3934,Cornwall,Cornwall,45.0171,-74.7333,Canada,CA,CAN,Ontario,,48821.0,1124938303
4036,Belleville,Belleville,44.1667,-77.3833,Canada,CA,CAN,Ontario,,43990.0,1124786959
4059,Charlottetown,Charlottetown,46.2493,-63.1313,Canada,CA,CAN,Prince Edward Island,admin,42402.0,1124897699
4077,Victoriaville,Victoriaville,46.0504,-71.9667,Canada,CA,CAN,Québec,,41500.0,1124149787
4079,Grande Prairie,Grande Prairie,55.1666,-118.8,Canada,CA,CAN,Alberta,,41462.0,1124505481
4157,Penticton,Penticton,49.5004,-119.5833,Canada,CA,CAN,British Columbia,,37721.0,1124613898
4266,Campbell River,Campbell River,50.0171,-125.25,Canada,CA,CAN,British Columbia,,33430.0,1124851971
4280,Courtenay,Courtenay,49.6833,-125.0,Canada,CA,CAN,British Columbia,,32793.0,1124324905
4284,Orangeville,Orangeville,43.9171,-80.0833,Canada,CA,CAN,Ontario,,32640.0,1124566061
4298,Moose Jaw,Moose Jaw,50.4,-105.55,Canada,CA,CAN,Saskatchewan,,32166.0,1124806868
4378,Brandon,Brandon,49.8333,-99.95,Canada,CA,CAN,Manitoba,,28418.0,1124239939
4430,Brockville,Brockville,44.5893,-75.6953,Canada,CA,CAN,Ontario,,26458.0,1124286131
4487,Rouyn-Noranda,Rouyn-Noranda,48.25,-79.0332,Canada,CA,CAN,Québec,,24602.0,1124267752
4533,Whitehorse,Whitehorse,60.7167,-135.05,Canada,CA,CAN,Yukon,admin,23276.0,1124348186
4565,Fort McMurray,Fort McMurray,56.7333,-111.3833,Canada,CA,CAN,Alberta,,21863.0,1124169385
4652,Yellowknife,Yellowknife,62.442,-114.397,Canada,CA,CAN,Northwest Territories,admin,19234.0,1124208917
4668,Fort Saint John,Fort Saint John,56.25,-120.8333,Canada,CA,CAN,British Columbia,,18776.0,1124517495
4749,Rivière-du-Loup,Riviere-du-Loup,47.8333,-69.5333,Canada,CA,CAN,Québec,,16403.0,1124662123
4936,Wetaskiwin,Wetaskiwin,52.9666,-113.3833,Canada,CA,CAN,Alberta,,11823.0,1124492484
5041,Weyburn,Weyburn,49.6666,-103.85,Canada,CA,CAN,Saskatchewan,,9362.0,1124618383
5204,Iqaluit,Iqaluit,63.7505,-68.5002,Canada,CA,CAN,Nunavut,admin,6124.0,1124379539
5224,Meadow Lake,Meadow Lake,54.1301,-108.4347,Canada,CA,CAN,Saskatchewan,,5882.0,1124434578
7034,Thunder Bay,Thunder Bay,48.4462,-89.275,Canada,CA,CAN,Ontario,,99334.0,1124398712
7165,Saint John,Saint John,45.267,-66.0767,Canada,CA,CAN,New Brunswick,,87857.0,1124631364
7201,Nanaimo,Nanaimo,49.146,-123.9343,Canada,CA,CAN,British Columbia,,84905.0,1124623893
7283,Saint-Jérôme,Saint-Jerome,45.7666,-74.0,Canada,CA,CAN,Québec,,78439.0,1124268324
7341,Red Deer,Red Deer,52.2666,-113.8,Canada,CA,CAN,Alberta,,74857.0,1124404130
7415,Lethbridge,Lethbridge,49.7005,-112.8333,Canada,CA,CAN,Alberta,,70617.0,1124321200
7456,Kamloops,Kamloops,50.6667,-120.3333,Canada,CA,CAN,British Columbia,,68714.0,1124735582
7530,Prince George,Prince George,53.9167,-122.7667,Canada,CA,CAN,British Columbia,,65558.0,1124733292
7580,Medicine Hat,Medicine Hat,50.0333,-110.6833,Canada,CA,CAN,Alberta,,63138.0,1124303972
7804,Chicoutimi,Chicoutimi,48.4333,-71.0667,Canada,CA,CAN,Québec,,53940.0,1124426272
7901,North Bay,North Bay,46.3,-79.45,Canada,CA,CAN,Ontario,,50170.0,1124058496
8070,Joliette,Joliette,46.0333,-73.4333,Canada,CA,CAN,Québec,,45361.0,1124841554
8381,Sydney,Sydney,46.0661,-60.18,Canada,CA,CAN,Nova Scotia,,37538.0,1124205375
8385,Orillia,Orillia,44.6,-79.4167,Canada,CA,CAN,Ontario,,37483.0,1124049830
8491,Rimouski,Rimouski,48.4337,-68.5167,Canada,CA,CAN,Québec,,35584.0,1124433645
8529,Timmins,Timmins,48.4666,-81.3333,Canada,CA,CAN,Ontario,,34974.0,1124760634
8551,Prince Albert,Prince Albert,53.2,-105.75,Canada,CA,CAN,Saskatchewan,,34609.0,1124158154
9149,Saint-Georges,Saint-Georges,46.1171,-70.6667,Canada,CA,CAN,Québec,,26149.0,1124154865
9194,Sept-Îles,Sept-Iles,50.3161,-66.36,Canada,CA,CAN,Québec,,25686.0,1124406431
9519,Owen Sound,Owen Sound,44.5666,-80.85,Canada,CA,CAN,Ontario,,22625.0,1124623613
9740,Corner Brook,Corner Brook,48.95,-57.9333,Canada,CA,CAN,Newfoundland and Labrador,,20791.0,1124244792
9767,Val-d’Or,Val-d'Or,48.1166,-77.7666,Canada,CA,CAN,Québec,,20625.0,1124239138
9811,New Glasgow,New Glasgow,45.5833,-62.6333,Canada,CA,CAN,Nova Scotia,,20322.0,1124760188
9952,Terrace,Terrace,54.5,-128.5833,Canada,CA,CAN,British Columbia,,19443.0,1124878479
9953,North Battleford,North Battleford,52.7666,-108.2833,Canada,CA,CAN,Saskatchewan,,19440.0,1124789635
10068,Cranbrook,Cranbrook,49.5167,-115.7667,Canada,CA,CAN,British Columbia,,18610.0,1124937794
10170,Edmundston,Edmundston,47.3794,-68.3333,Canada,CA,CAN,New Brunswick,,17894.0,1124274233
10511,Camrose,Camrose,53.0167,-112.8166,Canada,CA,CAN,Alberta,,15808.0,1124351657
10561,Pembroke,Pembroke,45.8503,-77.1166,Canada,CA,CAN,Ontario,,15551.0,1124877940
10634,Yorkton,Yorkton,51.2171,-102.4665,Canada,CA,CAN,Saskatchewan,,15172.0,1124108820
10685,Swift Current,Swift Current,50.2837,-107.7666,Canada,CA,CAN,Saskatchewan,,14906.0,1124460875
10721,Prince Rupert,Prince Rupert,54.3167,-130.33,Canada,CA,CAN,British Columbia,,14708.0,1124847707
10829,Williams Lake,Williams Lake,52.1166,-122.15,Canada,CA,CAN,British Columbia,,14168.0,1124821980
10831,Brooks,Brooks,50.5671,-111.9,Canada,CA,CAN,Alberta,,14163.0,1124093123
10922,Quesnel,Quesnel,52.9837,-122.4833,Canada,CA,CAN,British Columbia,,13788.0,1124028015
10936,Thompson,Thompson,55.7499,-97.8666,Canada,CA,CAN,Manitoba,,13727.0,1124110693
11034,Dolbeau,Dolbeau,48.8666,-72.2333,Canada,CA,CAN,Québec,,13337.0,1124037070
11165,Powell River,Powell River,49.8837,-124.55,Canada,CA,CAN,British Columbia,,12779.0,1124154376
11442,Nelson,Nelson,49.4837,-117.2833,Canada,CA,CAN,British Columbia,,11779.0,1124361295
11491,Mont-Laurier,Mont-Laurier,46.5504,-75.5,Canada,CA,CAN,Québec,,11642.0,1124355399
11733,Kenora,Kenora,49.7667,-94.4666,Canada,CA,CAN,Ontario,,10852.0,1124844807
11749,Dawson Creek,Dawson Creek,55.767,-120.2333,Canada,CA,CAN,British Columbia,,10802.0,1124081402
11838,Amos,Amos,48.5666,-78.1167,Canada,CA,CAN,Québec,,10516.0,1124939649
11861,Baie-Comeau,Baie-Comeau,49.2227,-68.158,Canada,CA,CAN,Québec,,10435.0,1124859576
11927,Hinton,Hinton,53.4,-117.5834,Canada,CA,CAN,Alberta,,10265.0,1124131074
12016,Selkirk,Selkirk,50.15,-96.8833,Canada,CA,CAN,Manitoba,,9986.0,1124499880
12078,Steinbach,Steinbach,49.5171,-96.6833,Canada,CA,CAN,Manitoba,,9729.0,1124152692
12205,Amherst,Amherst,45.8166,-64.2166,Canada,CA,CAN,Nova Scotia,,9336.0,1124895094
12236,Kapuskasing,Kapuskasing,49.4167,-82.4333,Canada,CA,CAN,Ontario,,9240.0,1124764245
12300,Dauphin,Dauphin,51.15,-100.05,Canada,CA,CAN,Manitoba,,9077.0,1124144510
12779,Dryden,Dryden,49.7833,-92.8333,Canada,CA,CAN,Ontario,,7862.0,1124295097
12849,Revelstoke,Revelstoke,51.0005,-118.1833,Canada,CA,CAN,British Columbia,,7668.0,1124070926
12891,Happy Valley,Happy Valley,53.3,-60.3,Canada,CA,CAN,Newfoundland and Labrador,,7572.0,1124879731
12925,Banff,Banff,51.178,-115.5719,Canada,CA,CAN,Alberta,,7502.0,1124351648
12927,Yarmouth,Yarmouth,43.8308,-66.1126,Canada,CA,CAN,Nova Scotia,,7500.0,1124983867
13063,La Sarre,La Sarre,48.8,-79.2,Canada,CA,CAN,Québec,,7206.0,1124902252
13135,Stephenville,Stephenville,48.5504,-58.5666,Canada,CA,CAN,Newfoundland and Labrador,,7054.0,1124000201
13442,Flin Flon,Flin Flon,54.7666,-101.8833,Canada,CA,CAN,Manitoba,,6393.0,1124500458
13620,The Pas,The Pas,53.8166,-101.2333,Canada,CA,CAN,Manitoba,,6055.0,1124755168
13740,Vegreville,Vegreville,53.5,-112.05,Canada,CA,CAN,Alberta,,5813.0,1124534321
14004,Peace River,Peace River,56.2333,-117.2833,Canada,CA,CAN,Alberta,,5340.0,1124941936
14219,Creston,Creston,49.1,-116.5167,Canada,CA,CAN,British Columbia,,4816.0,1124204302
14223,Sioux Lookout,Sioux Lookout,50.263,-91.9166,Canada,CA,CAN,Ontario,,4570.0,1124804545
14227,Cochrane,Cochrane,49.067,-81.0166,Canada,CA,CAN,Ontario,,4441.0,1124296729
14230,Liverpool,Liverpool,44.04,-64.72,Canada,CA,CAN,Nova Scotia,,4331.0,1124159558
14231,Melville,Melville,50.9333,-102.8,Canada,CA,CAN,Saskatchewan,,4279.0,1124823140
14240,Deer Lake,Deer Lake,49.1744,-57.4269,Canada,CA,CAN,Newfoundland and Labrador,,4163.0,1124841556
14246,Jasper,Jasper,52.8833,-118.0834,Canada,CA,CAN,Alberta,,3907.0,1124533812
14252,Gaspé,Gaspe,48.8373,-64.4934,Canada,CA,CAN,Québec,,3677.0,1124212754
14260,Fort Chipewyan,Fort Chipewyan,58.7171,-111.15,Canada,CA,CAN,Alberta,,3222.0,1124526582
14266,Lac La Biche,Lac La Biche,54.7719,-111.9647,Canada,CA,CAN,Alberta,,2986.0,1124501918
14281,Baie-du-Poste,Baie-du-Poste,50.4171,-73.8666,Canada,CA,CAN,Québec,,2645.0,1124591114
14282,Gimli,Gimli,50.6333,-97.0,Canada,CA,CAN,Manitoba,,2623.0,1124472413
14287,Athabasca,Athabasca,54.717,-113.2666,Canada,CA,CAN,Alberta,,2539.0,1124006333
14291,Nelson House,Nelson House,55.8005,-98.85,Canada,CA,CAN,Manitoba,,2500.0,1124119363
14295,Rankin Inlet,Rankin Inlet,62.8167,-92.0953,Canada,CA,CAN,Nunavut,,2472.0,1124057160
14304,Port Hardy,Port Hardy,50.7171,-127.5,Canada,CA,CAN,British Columbia,,2295.0,1124937351
14307,Wawa,Wawa,48.0004,-84.7833,Canada,CA,CAN,Ontario,,2174.0,1124381797
14311,Arviat,Arviat,61.1086,-94.0586,Canada,CA,CAN,Nunavut,,1868.0,1124309634
14319,Baker Lake,Baker Lake,64.317,-96.0167,Canada,CA,CAN,Nunavut,,1584.0,1124826935
14329,Cape Dorset,Cape Dorset,64.3125,-76.5386,Canada,CA,CAN,Nunavut,,1326.0,1124646146
14332,Lake Louise,Lake Louise,51.4337,-116.1833,Canada,CA,CAN,Alberta,,1248.0,1124619845
14340,Repulse Bay,Repulse Bay,66.5295,-86.2829,Canada,CA,CAN,Nunavut,,1000.0,1124398936
14349,Arctic Bay,Arctic Bay,73.0333,-85.1666,Canada,CA,CAN,Nunavut,,604.0,1124556203
14350,Fort Good Hope,Fort Good Hope,66.2666,-128.6333,Canada,CA,CAN,Northwest Territories,,597.0,1124011380
14355,Schefferville,Schefferville,54.8,-66.8167,Canada,CA,CAN,Québec,,471.0,1124403382
14357,Kimmirut,Kimmirut,62.85,-69.8833,Canada,CA,CAN,Nunavut,,385.0,1124651529
14361,Saint Anthony,Saint Anthony,51.3837,-55.6,Canada,CA,CAN,Newfoundland and Labrador,,224.0,1124808047
14366,Oxford House,Oxford House,54.9504,-95.2666,Canada,CA,CAN,Manitoba,,184.0,1124490415
14663,Parry Sound,Parry Sound,45.3337,-80.033,Canada,CA,CAN,Ontario,,7105.0,1124245809
14707,Antigonish,Antigonish,45.6269,-61.9982,Canada,CA,CAN,Nova Scotia,,6739.0,1124839247
14773,Fort Nelson,Fort Nelson,58.8167,-122.533,Canada,CA,CAN,British Columbia,,6315.0,1124378059
14783,Smithers,Smithers,54.7666,-127.1666,Canada,CA,CAN,British Columbia,,6245.0,1124191574
14802,Bathurst,Bathurst,47.6,-65.65,Canada,CA,CAN,New Brunswick,,6111.0,1124816720
14819,Norway House,Norway House,53.9666,-97.8333,Canada,CA,CAN,Manitoba,,6000.0,1124567295
14916,Stettler,Stettler,52.333,-112.6833,Canada,CA,CAN,Alberta,,5494.0,1124010388
14976,New Liskeard,New Liskeard,47.5,-79.6666,Canada,CA,CAN,Ontario,,5203.0,1124394858
15015,Hearst,Hearst,49.7005,-83.6666,Canada,CA,CAN,Ontario,,5043.0,1124376843
15041,Marathon,Marathon,48.7504,-86.3667,Canada,CA,CAN,Ontario,,4627.0,1124974800
15044,Kindersley,Kindersley,51.467,-109.1333,Canada,CA,CAN,Saskatchewan,,4383.0,1124343190
15052,Channel-Port aux Basques,Channel-Port aux Basques,47.567,-59.15,Canada,CA,CAN,Newfoundland and Labrador,,4220.0,1124993496
15064,Saint-Augustin,Saint-Augustin,51.2423,-58.647,Canada,CA,CAN,Québec,,3961.0,1124425707
15066,Digby,Digby,44.6226,-65.7605,Canada,CA,CAN,Nova Scotia,,3949.0,1124797865
15070,Hay River,Hay River,60.85,-115.7,Canada,CA,CAN,Northwest Territories,,3900.0,1124721803
15071,Windsor,Windsor,44.9806,-64.1291,Canada,CA,CAN,Nova Scotia,,3864.0,1124800737
15075,La Ronge,La Ronge,55.1,-105.3,Canada,CA,CAN,Saskatchewan,,3783.0,1124763455
15076,Deer Lake,Deer Lake,52.617,-94.0666,Canada,CA,CAN,Ontario,,3743.0,1124585613
15083,Atikokan,Atikokan,48.7504,-91.6166,Canada,CA,CAN,Ontario,,3625.0,1124868159
15094,Gander,Gander,48.95,-54.55,Canada,CA,CAN,Newfoundland and Labrador,,3345.0,1124310517
15101,Shelburne,Shelburne,43.7656,-65.3194,Canada,CA,CAN,Nova Scotia,,3167.0,1124659892
15109,Inuvik,Inuvik,68.35,-133.7,Canada,CA,CAN,Northwest Territories,,3022.0,1124116419
15115,Lillooet,Lillooet,50.6837,-121.9333,Canada,CA,CAN,British Columbia,,2893.0,1124632130
15122,Chapleau,Chapleau,47.8337,-83.4,Canada,CA,CAN,Ontario,,2663.0,1124518288
15123,Burns Lake,Burns Lake,54.217,-125.7666,Canada,CA,CAN,British Columbia,,2635.0,1124512812
15148,Biggar,Biggar,52.0504,-107.9833,Canada,CA,CAN,Saskatchewan,,2192.0,1124897904
15150,Wiarton,Wiarton,44.7337,-81.1333,Canada,CA,CAN,Ontario,,2182.0,1124916771
15151,Hudson Bay,Hudson Bay,52.8504,-102.3833,Canada,CA,CAN,Saskatchewan,,2157.0,1124151446
15158,Matagami,Matagami,49.7504,-77.6333,Canada,CA,CAN,Québec,,1966.0,1124686252
15171,Attawapiskat,Attawapiskat,52.9166,-82.4333,Canada,CA,CAN,Ontario,,1802.0,1124363788
15175,Red Lake,Red Lake,51.0337,-93.8333,Canada,CA,CAN,Ontario,,1765.0,1124856215
15179,Moosonee,Moosonee,51.2806,-80.658,Canada,CA,CAN,Ontario,,1725.0,1124592907
15185,Tofino,Tofino,49.1521,-125.9031,Canada,CA,CAN,British Columbia,,1655.0,1124140302
15186,Igloolik,Igloolik,69.2565,-81.7936,Canada,CA,CAN,Nunavut,,1612.0,1124253277
15187,Inukjuak,Inukjuak,58.47,-78.136,Canada,CA,CAN,Québec,,1597.0,1124369757
15188,Little Current,Little Current,45.967,-81.9333,Canada,CA,CAN,Ontario,,1595.0,1124386809
15190,Pond Inlet,Pond Inlet,72.685,-78.0001,Canada,CA,CAN,Nunavut,,1549.0,1124788973
15198,Cap-Chat,Cap-Chat,49.1,-66.6833,Canada,CA,CAN,Québec,,1484.0,1124662875
15199,Cambridge Bay,Cambridge Bay,69.117,-105.0333,Canada,CA,CAN,Nunavut,,1477.0,1124596377
15201,Thessalon,Thessalon,46.25,-83.55,Canada,CA,CAN,Ontario,,1464.0,1124087342
15205,Bella Bella,Bella Bella,52.1484,-128.1173,Canada,CA,CAN,British Columbia,,1400.0,1124480592
15207,Cobalt,Cobalt,47.3837,-79.6833,Canada,CA,CAN,Ontario,,1372.0,1124248298
15211,Pangnirtung,Pangnirtung,66.1333,-65.75,Canada,CA,CAN,Nunavut,,1320.0,1124731886
15212,Dawson,Dawson,64.0666,-139.4167,Canada,CA,CAN,Yukon,,1319.0,1124075766
15217,Kugluktuk,Kugluktuk,67.7987,-115.1254,Canada,CA,CAN,Nunavut,,1302.0,1124349489
15218,Geraldton,Geraldton,49.7166,-86.9666,Canada,CA,CAN,Ontario,,1290.0,1124836221
15220,Gillam,Gillam,56.35,-94.7,Canada,CA,CAN,Manitoba,,1281.0,1124560722
15221,Kuujjuaq,Kuujjuaq,58.1,-68.4,Canada,CA,CAN,Québec,,1273.0,1124705411
15229,Nipigon,Nipigon,49.017,-88.25,Canada,CA,CAN,Ontario,,1204.0,1124361489
15235,Nain,Nain,56.5474,-61.686,Canada,CA,CAN,Newfoundland and Labrador,,1151.0,1124719084
15241,Gjoa Haven,Gjoa Haven,68.6333,-95.9167,Canada,CA,CAN,Nunavut,,1109.0,1124942230
15244,Fort McPherson,Fort McPherson,67.4915,-134.895,Canada,CA,CAN,Northwest Territories,,1069.0,1124984904
15245,Argentia,Argentia,47.3004,-53.99,Canada,CA,CAN,Newfoundland and Labrador,,1063.0,1124242107
15247,Norman Wells,Norman Wells,65.2837,-126.85,Canada,CA,CAN,Northwest Territories,,1027.0,1124868628
15252,Churchill,Churchill,58.766,-94.166,Canada,CA,CAN,Manitoba,,1000.0,1124676851
15258,Tuktoyaktuk,Tuktoyaktuk,69.4548,-133.0492,Canada,CA,CAN,Northwest Territories,,929.0,1124437778
15259,Berens River,Berens River,52.3666,-97.0333,Canada,CA,CAN,Manitoba,,892.0,1124806860
15261,Shamattawa,Shamattawa,55.8504,-92.0833,Canada,CA,CAN,Manitoba,,870.0,1124131561
15263,Baddeck,Baddeck,46.1,-60.754,Canada,CA,CAN,Nova Scotia,,852.0,1124594988
15264,Coral Harbour,Coral Harbour,64.1538,-83.1766,Canada,CA,CAN,Nunavut,,834.0,1124748087
15266,La Scie,La Scie,49.967,-55.583,Canada,CA,CAN,Newfoundland and Labrador,,817.0,1124371570
15267,Watson Lake,Watson Lake,60.1166,-128.8,Canada,CA,CAN,Yukon,,802.0,1124162676
15271,Taloyoak,Taloyoak,69.5333,-93.5333,Canada,CA,CAN,Nunavut,,774.0,1124099415
15275,Natashquan,Natashquan,50.1913,-61.8107,Canada,CA,CAN,Québec,,722.0,1124631749
15280,Buchans,Buchans,48.817,-56.8666,Canada,CA,CAN,Newfoundland and Labrador,,685.0,1124564223
15283,Hall Beach,Hall Beach,68.7675,-81.2361,Canada,CA,CAN,Nunavut,,654.0,1124072220
15293,Mingan,Mingan,50.3018,-64.0173,Canada,CA,CAN,Québec,,588.0,1124305694
15300,Kangirsuk,Kangirsuk,60.0248,-69.9991,Canada,CA,CAN,Québec,,549.0,1124276361
15302,Sandspit,Sandspit,53.2404,-131.8333,Canada,CA,CAN,British Columbia,,538.0,1124264846
15307,Délįne,Deline,65.1833,-123.4167,Canada,CA,CAN,Northwest Territories,,525.0,1124071207
15308,Fort Smith,Fort Smith,60.0,-111.8833,Canada,CA,CAN,Northwest Territories,,518.0,1124491408
15311,Cartwright,Cartwright,53.7014,-57.0121,Canada,CA,CAN,Newfoundland and Labrador,,505.0,1124810278
15316,Holman,Holman,70.7334,-117.75,Canada,CA,CAN,Northwest Territories,,500.0,1124762461
15317,Lynn Lake,Lynn Lake,56.85,-101.05,Canada,CA,CAN,Manitoba,,482.0,1124617750
15320,Trout River,Trout River,49.4837,-58.1166,Canada,CA,CAN,Newfoundland and Labrador,,452.0,1124733447
15323,Fort Resolution,Fort Resolution,61.1666,-113.683,Canada,CA,CAN,Northwest Territories,,448.0,1124395645
15324,Forteau Bay,Forteau Bay,51.4504,-56.95,Canada,CA,CAN,Newfoundland and Labrador,,448.0,1124235945
15327,Hopedale,Hopedale,55.45,-60.2167,Canada,CA,CAN,Newfoundland and Labrador,,442.0,1124338710
15328,Pukatawagan,Pukatawagan,55.7333,-101.3166,Canada,CA,CAN,Manitoba,,431.0,1124927414
15335,Trepassey,Trepassey,46.737,-53.3633,Canada,CA,CAN,Newfoundland and Labrador,,398.0,1124344083
15339,Chesterfield Inlet,Chesterfield Inlet,63.3383,-90.7001,Canada,CA,CAN,Nunavut,,374.0,1124208484
15341,Eastmain,Eastmain,52.2333,-78.5167,Canada,CA,CAN,Québec,,335.0,1124594875
15344,Dease Lake,Dease Lake,58.4503,-130.0333,Canada,CA,CAN,British Columbia,,303.0,1124864417
15352,Paulatuk,Paulatuk,69.3833,-123.9833,Canada,CA,CAN,Northwest Territories,,294.0,1124599203
15356,Fort Simpson,Fort Simpson,61.85,-121.3333,Canada,CA,CAN,Northwest Territories,,283.0,1124669512
15359,Brochet,Brochet,57.8832,-101.6666,Canada,CA,CAN,Manitoba,,278.0,1124164486
15360,Cat Lake,Cat Lake,51.717,-91.8,Canada,CA,CAN,Ontario,,277.0,1124908580
15362,Radisson,Radisson,53.7836,-77.6166,Canada,CA,CAN,Québec,,270.0,1124508471
15364,Port-Menier,Port-Menier,49.8226,-64.348,Canada,CA,CAN,Québec,,263.0,1124109240
15366,Resolute,Resolute,74.6833,-94.9,Canada,CA,CAN,Nunavut,,250.0,1124211405
15381,Upper Hay River,Upper Hay River,59.0333,-117.683,Canada,CA,CAN,Alberta,,200.0,1124688170
15382,Port Hope Simpson,Port Hope Simpson,52.5333,-56.3,Canada,CA,CAN,Newfoundland and Labrador,,197.0,1124159024
15392,Tsiigehtchic,Tsiigehtchic,67.4333,-133.75,Canada,CA,CAN,Northwest Territories,,175.0,1124282127
15398,Ivujivik,Ivujivik,62.4166,-77.9,Canada,CA,CAN,Québec,,156.0,1124828045
15399,Stony Rapids,Stony Rapids,59.2666,-105.8333,Canada,CA,CAN,Saskatchewan,,152.0,1124279421
15407,Alert,Alert,82.4833,-62.25,Canada,CA,CAN,Nunavut,,125.0,1124921853
15408,Fort Severn,Fort Severn,55.9833,-87.65,Canada,CA,CAN,Ontario,,125.0,1124513059
15409,Rigolet,Rigolet,54.1766,-58.4473,Canada,CA,CAN,Newfoundland and Labrador,,124.0,1124015130
15410,Lansdowne House,Lansdowne House,52.2166,-87.8833,Canada,CA,CAN,Ontario,,120.0,1124130748
15412,Salluit,Salluit,62.1826,-75.6595,Canada,CA,CAN,Québec,,106.0,1124962070
15413,Łutselk’e,Lutselk'e,62.4001,-110.7333,Canada,CA,CAN,Northwest Territories,,102.0,1124525451
15435,Uranium City,Uranium City,59.5666,-108.6166,Canada,CA,CAN,Saskatchewan,,89.0,1124993293
15436,Burwash Landing,Burwash Landing,61.3504,-139.0,Canada,CA,CAN,Yukon,,73.0,1124021816
15441,Grise Fiord,Grise Fiord,76.4417,-82.95,Canada,CA,CAN,Nunavut,,23.0,1124072601
15485,Island Lake,Island Lake,53.9666,-94.7666,Canada,CA,CAN,Manitoba,,10.0,1124887306
15486,Big Beaverhouse,Big Beaverhouse,52.95,-89.8833,Canada,CA,CAN,Ontario,,10.0,1124557709
15492,Ennadai,Ennadai,61.1333,-100.8833,Canada,CA,CAN,Nunavut,,0.0,1124019423
49,Ho Chi Minh City,Ho Chi Minh City,10.78,106.695,Vietnam,VN,VNM,Hồ Chí Minh,admin,5314000.0,1704774326
67,Hanoi,Hanoi,21.0333,105.85,Vietnam,VN,VNM,Hà Nội,primary,4378000.0,1704413791
217,Haiphong,Haiphong,20.83,106.6801,Vietnam,VN,VNM,Hải Phòng,admin,1969000.0,1704000623
427,Cần Thơ,Can Tho,10.05,105.77,Vietnam,VN,VNM,Cần Thơ,admin,1121000.0,1704783472
609,Quảng Hà,Quang Ha,16.06,108.25,Vietnam,VN,VNM,Quảng Nam,,1000000.0,1704966442
646,Huế,Hue,16.47,107.58,Vietnam,VN,VNM,Thừa Thiên-Huế,admin,950000.0,1704016023
753,Quy Nhơn,Quy Nhon,13.78,109.18,Vietnam,VN,VNM,Bình Định,admin,805290.0,1704056461
868,Biên Hòa,Bien Hoa,10.97,106.8301,Vietnam,VN,VNM,Đồng Nai,admin,652646.0,1704863046
931,Vinh,Vinh,18.7,105.68,Vietnam,VN,VNM,Nghệ An,admin,593645.0,1704960059
1056,Thái Nguyên,Thai Nguyen,21.6,105.83,Vietnam,VN,VNM,Thái Nguyên,admin,500000.0,1704613715
1209,Nha Trang,Nha Trang,12.25,109.17,Vietnam,VN,VNM,Khánh Hòa,admin,411556.0,1704497901
1355,Cà Mau,Ca Mau,9.1774,105.15,Vietnam,VN,VNM,Cà Mau,admin,356636.0,1704320474
1373,Long Xuyên,Long Xuyen,10.3804,105.42,Vietnam,VN,VNM,An Giang,admin,350000.0,1704453892
1374,Việt Trì,Viet Tri,21.3304,105.43,Vietnam,VN,VNM,Phú Thọ,admin,350000.0,1704332956
1378,Buôn Ma Thuột,Buon Ma Thuot,12.667,108.05,Vietnam,VN,VNM,Đắk Lắk,admin,349945.0,1704542086
